{"type":"FeatureCollection","crs":{"type":"name","properties":{"name":"EPSG:4326"}},"features":[{"type":"Feature","id":1,"geometry":{"type":"Point","coordinates":[-82.77903,39.956666]},"properties":{"FID":1,"stop_id":"HANMAIN","stop_code":36,"stop_name":"HANSON ST & E MAIN ST","stop_desc":" ","stop_lat":39.956666,"stop_lon":-82.77903,"zone_id":" ","stop_url":" ","location_t":" ","parent_sta":" ","wheelchair":0}},{"type":"Feature","id":2,"geometry":{"type":"Point","coordinates":[-83.062991,39.938547]},"properties":{"FID":2,"stop_id":"MOUWAYW","stop_code":54,"stop_name":"W MOUND ST & S WAYNE AVE","stop_desc":" ","stop_lat":39.938547,"stop_lon":-83.062991,"zone_id":" ","stop_url":" ","location_t":" ","parent_sta":" ","wheelchair":0}},{"type":"Feature","id":3,"geometry":{"type":"Point","coordinates":[-82.967273,39.907483]},"properties":{"FID":3,"stop_id":"MARIONS","stop_code":141,"stop_name":"MARION FRANKLIN COMMUNITY CENTER","stop_desc":"MARION FRANKLIN COMMUNITY CTR","stop_lat":39.907483,"stop_lon":-82.967273,"zone_id":" ","stop_url":" ","location_t":" ","parent_sta":" ","wheelchair":0}},{"type":"Feature","id":4,"geometry":{"type":"Point","coordinates":[-82.999017,39.95727]},"properties":{"FID":4,"stop_id":"SOUTER2","stop_code":388,"stop_name":"COTA TRANSIT TERMINAL BAY 2","stop_desc":"COTA SOUTH TERMINAL NORTHBOUND PATH & E RICH ST","stop_lat":39.95727,"stop_lon":-82.999017,"zone_id":" ","stop_url":" ","location_t":" ","parent_sta":" ","wheelchair":0}},{"type":"Feature","id":5,"geometry":{"type":"Point","coordinates":[-82.998982,39.957083]},"properties":{"FID":5,"stop_id":"SOUTER4","stop_code":411,"stop_name":"COTA TRANSIT TERMINAL BAY 4","stop_desc":"COTA SOUTH TERMINAL NORTHBOUND PATH & E RICH ST","stop_lat":39.957083,"stop_lon":-82.998982,"zone_id":" ","stop_url":" ","location_t":" ","parent_sta":" ","wheelchair":0}},{"type":"Feature","id":6,"geometry":{"type":"Point","coordinates":[-82.998886,39.956717]},"properties":{"FID":6,"stop_id":"SOUTER7","stop_code":427,"stop_name":"COTA TRANSIT TERMINAL BAY 7","stop_desc":"COTA SOUTH TERMINAL SOUTHBOUND PATH & E MAIN ST","stop_lat":39.956717,"stop_lon":-82.998886,"zone_id":" ","stop_url":" ","location_t":" ","parent_sta":" ","wheelchair":0}},{"type":"Feature","id":7,"geometry":{"type":"Point","coordinates":[-83.002424,39.965888]},"properties":{"FID":7,"stop_id":"NORTER2","stop_code":429,"stop_name":"SPRING ST TERMINAL BAY 2","stop_desc":"COTA NORTH TERMINAL ENTRANCE SVC & W SPRING ST","stop_lat":39.965888,"stop_lon":-83.002424,"zone_id":" ","stop_url":" ","location_t":" ","parent_sta":" ","wheelchair":0}},{"type":"Feature","id":8,"geometry":{"type":"Point","coordinates":[-83.002412,39.965808]},"properties":{"FID":8,"stop_id":"NORTER3","stop_code":440,"stop_name":"SPRING ST TERMINAL BAY 3","stop_desc":"COTA NORTH TERMINAL ENTRANCE SVC & W SPRING ST","stop_lat":39.965808,"stop_lon":-83.002412,"zone_id":" ","stop_url":" ","location_t":" ","parent_sta":" ","wheelchair":0}},{"type":"Feature","id":9,"geometry":{"type":"Point","coordinates":[-82.998851,39.95653]},"properties":{"FID":9,"stop_id":"SOUTER9","stop_code":454,"stop_name":"COTA TRANSIT TERMINAL BAY 9","stop_desc":"COTA SOUTH TERMINAL SOUTHBOUND PATH & E MAIN ST","stop_lat":39.95653,"stop_lon":-82.998851,"zone_id":" ","stop_url":" ","location_t":" ","parent_sta":" ","wheelchair":0}},{"type":"Feature","id":10,"geometry":{"type":"Point","coordinates":[-83.002388,39.965718]},"properties":{"FID":10,"stop_id":"NORTER4","stop_code":455,"stop_name":"SPRING ST TERMINAL BAY 4","stop_desc":"COTA NORTH TERMINAL ENTRANCE SVC & W SPRING ST","stop_lat":39.965718,"stop_lon":-83.002388,"zone_id":" ","stop_url":" ","location_t":" ","parent_sta":" ","wheelchair":0}},{"type":"Feature","id":11,"geometry":{"type":"Point","coordinates":[-82.99897,39.957101]},"properties":{"FID":11,"stop_id":"SOUTER3","stop_code":467,"stop_name":"COTA TRANSIT TERMINAL BAY 3","stop_desc":"COTA SOUTH TERMINAL SOUTHBOUND PATH & E RICH ST","stop_lat":39.957101,"stop_lon":-82.99897,"zone_id":" ","stop_url":" ","location_t":" ","parent_sta":" ","wheelchair":0}},{"type":"Feature","id":12,"geometry":{"type":"Point","coordinates":[-82.998946,39.956896]},"properties":{"FID":12,"stop_id":"SOUTER6","stop_code":478,"stop_name":"COTA TRANSIT TERMINAL BAY 6","stop_desc":"COTA SOUTH TERMINAL NORTHBOUND PATH & E MAIN ST","stop_lat":39.956896,"stop_lon":-82.998946,"zone_id":" ","stop_url":" ","location_t":" ","parent_sta":" ","wheelchair":0}},{"type":"Feature","id":13,"geometry":{"type":"Point","coordinates":[-82.998898,39.956699]},"properties":{"FID":13,"stop_id":"SOUTER8","stop_code":498,"stop_name":"COTA TRANSIT TERMINAL BAY 8","stop_desc":"COTA SOUTH TERMINAL NORTHBOUND PATH & E MAIN ST","stop_lat":39.956699,"stop_lon":-82.998898,"zone_id":" ","stop_url":" ","location_t":" ","parent_sta":" ","wheelchair":0}},{"type":"Feature","id":14,"geometry":{"type":"Point","coordinates":[-82.998934,39.956913]},"properties":{"FID":14,"stop_id":"SOUTER5","stop_code":524,"stop_name":"COTA TRANSIT TERMINAL BAY 5","stop_desc":"COTA SOUTH TERMINAL SOUTHBOUND PATH & E RICH ST","stop_lat":39.956913,"stop_lon":-82.998934,"zone_id":" ","stop_url":" ","location_t":" ","parent_sta":" ","wheelchair":0}},{"type":"Feature","id":15,"geometry":{"type":"Point","coordinates":[-83.002436,39.965968]},"properties":{"FID":15,"stop_id":"NORTER1","stop_code":525,"stop_name":"SPRING ST TERMINAL BAY 1","stop_desc":"COTA NORTH TERMINAL ENTRANCE SVC & W SPRING ST","stop_lat":39.965968,"stop_lon":-83.002436,"zone_id":" ","stop_url":" ","location_t":" ","parent_sta":" ","wheelchair":0}},{"type":"Feature","id":16,"geometry":{"type":"Point","coordinates":[-83.002376,39.965638]},"properties":{"FID":16,"stop_id":"NORTER5","stop_code":568,"stop_name":"SPRING ST TERMINAL BAY 5","stop_desc":"COTA NORTH TERMINAL ENTRANCE SVC & W SPRING ST","stop_lat":39.965638,"stop_lon":-83.002376,"zone_id":" ","stop_url":" ","location_t":" ","parent_sta":" ","wheelchair":0}},{"type":"Feature","id":17,"geometry":{"type":"Point","coordinates":[-82.853016,39.999869]},"properties":{"FID":17,"stop_id":"TECAEPE","stop_code":932,"stop_name":"TECHCENTER DR & AEP","stop_desc":"TECH CENTER DR & AEP","stop_lat":39.999869,"stop_lon":-82.853016,"zone_id":" ","stop_url":" ","location_t":" ","parent_sta":" ","wheelchair":0}},{"type":"Feature","id":18,"geometry":{"type":"Point","coordinates":[-82.995545,39.92302]},"properties":{"FID":18,"stop_id":"HIGHOSS","stop_code":1059,"stop_name":"S HIGH ST & HOSACK ST","stop_desc":" ","stop_lat":39.92302,"stop_lon":-82.995545,"zone_id":" ","stop_url":" ","location_t":" ","parent_sta":" ","wheelchair":0}},{"type":"Feature","id":19,"geometry":{"type":"Point","coordinates":[-82.951647,39.948836]},"properties":{"FID":19,"stop_id":"LIVBULW","stop_code":1086,"stop_name":"E LIVINGSTON AVE & BULEN AVE","stop_desc":" ","stop_lat":39.948836,"stop_lon":-82.951647,"zone_id":" ","stop_url":" ","location_t":" ","parent_sta":" ","wheelchair":0}},{"type":"Feature","id":20,"geometry":{"type":"Point","coordinates":[-82.990461,39.966625]},"properties":{"FID":20,"stop_id":"CLELONN","stop_code":1087,"stop_name":"CLEVELAND AVE & E LONG ST","stop_desc":" ","stop_lat":39.966625,"stop_lon":-82.990461,"zone_id":" ","stop_url":" ","location_t":" ","parent_sta":" ","wheelchair":0}},{"type":"Feature","id":21,"geometry":{"type":"Point","coordinates":[-82.99052,39.967745]},"properties":{"FID":21,"stop_id":"CLESPRN","stop_code":1088,"stop_name":"CLEVELAND AVE & E SPRING ST","stop_desc":" ","stop_lat":39.967745,"stop_lon":-82.99052,"zone_id":" ","stop_url":" ","location_t":" ","parent_sta":" ","wheelchair":0}},{"type":"Feature","id":22,"geometry":{"type":"Point","coordinates":[-82.99037,39.969554]},"properties":{"FID":22,"stop_id":"CLEMOUN","stop_code":1089,"stop_name":"CLEVELAND AVE & MOUNT VERNON AVE","stop_desc":" ","stop_lat":39.969554,"stop_lon":-82.99037,"zone_id":" ","stop_url":" ","location_t":" ","parent_sta":" ","wheelchair":0}},{"type":"Feature","id":23,"geometry":{"type":"Point","coordinates":[-82.990132,39.972493]},"properties":{"FID":23,"stop_id":"CLEJACN","stop_code":1091,"stop_name":"CLEVELAND AVE & JACK GIBBS BLVD","stop_desc":" ","stop_lat":39.972493,"stop_lon":-82.990132,"zone_id":" ","stop_url":" ","location_t":" ","parent_sta":" ","wheelchair":0}},{"type":"Feature","id":24,"geometry":{"type":"Point","coordinates":[-82.989457,39.981514]},"properties":{"FID":24,"stop_id":"CLE2NDN","stop_code":1094,"stop_name":"CLEVELAND AVE & E 2ND AVE","stop_desc":" ","stop_lat":39.981514,"stop_lon":-82.989457,"zone_id":" ","stop_url":" ","location_t":" ","parent_sta":" ","wheelchair":0}},{"type":"Feature","id":25,"geometry":{"type":"Point","coordinates":[-82.989321,39.983318]},"properties":{"FID":25,"stop_id":"CLE3RDN","stop_code":1095,"stop_name":"CLEVELAND AVE & E 3RD AVE","stop_desc":" ","stop_lat":39.983318,"stop_lon":-82.989321,"zone_id":" ","stop_url":" ","location_t":" ","parent_sta":" ","wheelchair":0}},{"type":"Feature","id":26,"geometry":{"type":"Point","coordinates":[-82.987305,39.988178]},"properties":{"FID":26,"stop_id":"CLESHON","stop_code":1098,"stop_name":"CLEVELAND AVE & SHOEMAKER AVE","stop_desc":" ","stop_lat":39.988178,"stop_lon":-82.987305,"zone_id":" ","stop_url":" ","location_t":" ","parent_sta":" ","wheelchair":0}},{"type":"Feature","id":27,"geometry":{"type":"Point","coordinates":[-82.984583,39.990831]},"properties":{"FID":27,"stop_id":"CLECAMN","stop_code":1099,"stop_name":"CLEVELAND AVE & CAMDEN AVE","stop_desc":" ","stop_lat":39.990831,"stop_lon":-82.984583,"zone_id":" ","stop_url":" ","location_t":" ","parent_sta":" ","wheelchair":0}},{"type":"Feature","id":28,"geometry":{"type":"Point","coordinates":[-82.981879,39.993413]},"properties":{"FID":28,"stop_id":"CLE11TN","stop_code":1100,"stop_name":"CLEVELAND AVE & E 11TH AVE","stop_desc":" ","stop_lat":39.993413,"stop_lon":-82.981879,"zone_id":" ","stop_url":" ","location_t":" ","parent_sta":" ","wheelchair":0}},{"type":"Feature","id":29,"geometry":{"type":"Point","coordinates":[-82.979577,39.995615]},"properties":{"FID":29,"stop_id":"CLECHIN","stop_code":1101,"stop_name":"CLEVELAND AVE & CHITTENDEN AVE","stop_desc":" ","stop_lat":39.995615,"stop_lon":-82.979577,"zone_id":" ","stop_url":" ","location_t":" ","parent_sta":" ","wheelchair":0}},{"type":"Feature","id":30,"geometry":{"type":"Point","coordinates":[-82.977974,39.997133]},"properties":{"FID":30,"stop_id":"CLEWINN","stop_code":1102,"stop_name":"CLEVELAND AVE & WINDSOR AVE","stop_desc":" ","stop_lat":39.997133,"stop_lon":-82.977974,"zone_id":" ","stop_url":" ","location_t":" ","parent_sta":" ","wheelchair":0}},{"type":"Feature","id":31,"geometry":{"type":"Point","coordinates":[-82.976803,39.998468]},"properties":{"FID":31,"stop_id":"CLE15TN","stop_code":1103,"stop_name":"CLEVELAND AVE & E 15TH AVE","stop_desc":" ","stop_lat":39.998468,"stop_lon":-82.976803,"zone_id":" ","stop_url":" ","location_t":" ","parent_sta":" ","wheelchair":0}},{"type":"Feature","id":32,"geometry":{"type":"Point","coordinates":[-82.975688,40.000161]},"properties":{"FID":32,"stop_id":"CLE17TN","stop_code":1104,"stop_name":"CLEVELAND AVE & E 17TH AVE","stop_desc":" ","stop_lat":40.000161,"stop_lon":-82.975688,"zone_id":" ","stop_url":" ","location_t":" ","parent_sta":" ","wheelchair":0}},{"type":"Feature","id":33,"geometry":{"type":"Point","coordinates":[-83.070025,40.023016]},"properties":{"FID":33,"stop_id":"RIDREDW","stop_code":1105,"stop_name":"RIDGECLIFF RD & REDDING RD","stop_desc":" ","stop_lat":40.023016,"stop_lon":-83.070025,"zone_id":" ","stop_url":" ","location_t":" ","parent_sta":" ","wheelchair":0}},{"type":"Feature","id":34,"geometry":{"type":"Point","coordinates":[-82.974205,40.002498]},"properties":{"FID":34,"stop_id":"CLE19TN","stop_code":1106,"stop_name":"CLEVELAND AVE & E 19TH AVE","stop_desc":" ","stop_lat":40.002498,"stop_lon":-82.974205,"zone_id":" ","stop_url":" ","location_t":" ","parent_sta":" ","wheelchair":0}},{"type":"Feature","id":35,"geometry":{"type":"Point","coordinates":[-82.972204,40.005664]},"properties":{"FID":35,"stop_id":"CLE23RN","stop_code":1108,"stop_name":"CLEVELAND AVE & E 23RD AVE","stop_desc":" ","stop_lat":40.005664,"stop_lon":-82.972204,"zone_id":" ","stop_url":" ","location_t":" ","parent_sta":" ","wheelchair":0}},{"type":"Feature","id":36,"geometry":{"type":"Point","coordinates":[-82.971424,40.006947]},"properties":{"FID":36,"stop_id":"CLE25TN","stop_code":1109,"stop_name":"CLEVELAND AVE & E 25TH AVE","stop_desc":" ","stop_lat":40.006947,"stop_lon":-82.971424,"zone_id":" ","stop_url":" ","location_t":" ","parent_sta":" ","wheelchair":0}},{"type":"Feature","id":37,"geometry":{"type":"Point","coordinates":[-82.970345,40.008692]},"properties":{"FID":37,"stop_id":"CLEDUXN","stop_code":1110,"stop_name":"CLEVELAND AVE & DUXBERRY AVE","stop_desc":" ","stop_lat":40.008692,"stop_lon":-82.970345,"zone_id":" ","stop_url":" ","location_t":" ","parent_sta":" ","wheelchair":0}},{"type":"Feature","id":38,"geometry":{"type":"Point","coordinates":[-82.968854,40.011141]},"properties":{"FID":38,"stop_id":"CLECORN","stop_code":1111,"stop_name":"CLEVELAND AVE & CORDELL AVE","stop_desc":" ","stop_lat":40.011141,"stop_lon":-82.968854,"zone_id":" ","stop_url":" ","location_t":" ","parent_sta":" ","wheelchair":0}},{"type":"Feature","id":39,"geometry":{"type":"Point","coordinates":[-82.967418,40.013473]},"properties":{"FID":39,"stop_id":"CLEHUDN","stop_code":1113,"stop_name":"CLEVELAND AVE & E HUDSON ST","stop_desc":" ","stop_lat":40.013473,"stop_lon":-82.967418,"zone_id":" ","stop_url":" ","location_t":" ","parent_sta":" ","wheelchair":0}},{"type":"Feature","id":40,"geometry":{"type":"Point","coordinates":[-82.966119,40.015552]},"properties":{"FID":40,"stop_id":"CLEREPN","stop_code":1114,"stop_name":"CLEVELAND AVE & REPUBLIC AVE","stop_desc":" ","stop_lat":40.015552,"stop_lon":-82.966119,"zone_id":" ","stop_url":" ","location_t":" ","parent_sta":" ","wheelchair":0}},{"type":"Feature","id":41,"geometry":{"type":"Point","coordinates":[-82.964969,40.018498]},"properties":{"FID":41,"stop_id":"CLEGENN","stop_code":1116,"stop_name":"CLEVELAND AVE & GENESSEE AVE","stop_desc":" ","stop_lat":40.018498,"stop_lon":-82.964969,"zone_id":" ","stop_url":" ","location_t":" ","parent_sta":" ","wheelchair":0}},{"type":"Feature","id":42,"geometry":{"type":"Point","coordinates":[-82.964835,40.020066]},"properties":{"FID":42,"stop_id":"CLELINN","stop_code":1117,"stop_name":"CLEVELAND AVE & LINDEN PL","stop_desc":" ","stop_lat":40.020066,"stop_lon":-82.964835,"zone_id":" ","stop_url":" ","location_t":" ","parent_sta":" ","wheelchair":0}},{"type":"Feature","id":43,"geometry":{"type":"Point","coordinates":[-82.964612,40.022961]},"properties":{"FID":43,"stop_id":"CLEWEBN","stop_code":1118,"stop_name":"CLEVELAND AVE & E WEBER RD","stop_desc":" ","stop_lat":40.022961,"stop_lon":-82.964612,"zone_id":" ","stop_url":" ","location_t":" ","parent_sta":" ","wheelchair":0}},{"type":"Feature","id":44,"geometry":{"type":"Point","coordinates":[-82.964395,40.025778]},"properties":{"FID":44,"stop_id":"CLELAKN","stop_code":1119,"stop_name":"CLEVELAND AVE & E LAKEVIEW AVE","stop_desc":" ","stop_lat":40.025778,"stop_lon":-82.964395,"zone_id":" ","stop_url":" ","location_t":" ","parent_sta":" ","wheelchair":0}},{"type":"Feature","id":45,"geometry":{"type":"Point","coordinates":[-82.964074,40.029775]},"properties":{"FID":45,"stop_id":"CLENORBN","stop_code":1122,"stop_name":"CLEVELAND AVE & E NORTH BROADWAY","stop_desc":" ","stop_lat":40.029775,"stop_lon":-82.964074,"zone_id":" ","stop_url":" ","location_t":" ","parent_sta":" ","wheelchair":0}},{"type":"Feature","id":46,"geometry":{"type":"Point","coordinates":[-82.9639,40.031563]},"properties":{"FID":46,"stop_id":"CLEOAKN","stop_code":1123,"stop_name":"CLEVELAND AVE & OAKLAND PARK AVE","stop_desc":" ","stop_lat":40.031563,"stop_lon":-82.9639,"zone_id":" ","stop_url":" ","location_t":" ","parent_sta":" ","wheelchair":0}},{"type":"Feature","id":47,"geometry":{"type":"Point","coordinates":[-82.963432,40.034844]},"properties":{"FID":47,"stop_id":"CLEHUYN","stop_code":1124,"stop_name":"CLEVELAND AVE & HUY RD","stop_desc":" ","stop_lat":40.034844,"stop_lon":-82.963432,"zone_id":" ","stop_url":" ","location_t":" ","parent_sta":" ","wheelchair":0}},{"type":"Feature","id":48,"geometry":{"type":"Point","coordinates":[-82.958278,40.037124]},"properties":{"FID":48,"stop_id":"INNDERE","stop_code":1125,"stop_name":"INNIS RD & DERBYSHIRE DR","stop_desc":" ","stop_lat":40.037124,"stop_lon":-82.958278,"zone_id":" ","stop_url":" ","location_t":" ","parent_sta":" ","wheelchair":0}},{"type":"Feature","id":49,"geometry":{"type":"Point","coordinates":[-82.955294,40.037179]},"properties":{"FID":49,"stop_id":"INNUSPW","stop_code":1127,"stop_name":"INNIS RD & US POSTAL SERVICE","stop_desc":"2200 INNIS RD","stop_lat":40.037179,"stop_lon":-82.955294,"zone_id":" ","stop_url":" ","location_t":" ","parent_sta":" ","wheelchair":0}},{"type":"Feature","id":50,"geometry":{"type":"Point","coordinates":[-82.96211,40.037463]},"properties":{"FID":50,"stop_id":"INNCLEW","stop_code":1128,"stop_name":"INNIS RD & CLEVELAND AVE","stop_desc":" ","stop_lat":40.037463,"stop_lon":-82.96211,"zone_id":" ","stop_url":" ","location_t":" ","parent_sta":" ","wheelchair":0}},{"type":"Feature","id":51,"geometry":{"type":"Point","coordinates":[-82.963139,40.038016]},"properties":{"FID":51,"stop_id":"NORINNIS","stop_code":1129,"stop_name":"NORTHERN LIGHTS SVC RD & INNIS RD","stop_desc":" ","stop_lat":40.038016,"stop_lon":-82.963139,"zone_id":" ","stop_url":" ","location_t":" ","parent_sta":" ","wheelchair":0}},{"type":"Feature","id":52,"geometry":{"type":"Point","coordinates":[-82.963557,40.035356]},"properties":{"FID":52,"stop_id":"CLEHUYS","stop_code":1132,"stop_name":"CLEVELAND AVE & HUY RD","stop_desc":" ","stop_lat":40.035356,"stop_lon":-82.963557,"zone_id":" ","stop_url":" ","location_t":" ","parent_sta":" ","wheelchair":0}},{"type":"Feature","id":53,"geometry":{"type":"Point","coordinates":[-82.964134,40.03154]},"properties":{"FID":53,"stop_id":"CLEOAKS","stop_code":1134,"stop_name":"CLEVELAND AVE & OAKLAND PARK AVE","stop_desc":" ","stop_lat":40.03154,"stop_lon":-82.964134,"zone_id":" ","stop_url":" ","location_t":" ","parent_sta":" ","wheelchair":0}},{"type":"Feature","id":54,"geometry":{"type":"Point","coordinates":[-82.964277,40.029236]},"properties":{"FID":54,"stop_id":"CLENORS","stop_code":1135,"stop_name":"CLEVELAND AVE & E NORTH BROADWAY","stop_desc":" ","stop_lat":40.029236,"stop_lon":-82.964277,"zone_id":" ","stop_url":" ","location_t":" ","parent_sta":" ","wheelchair":0}},{"type":"Feature","id":55,"geometry":{"type":"Point","coordinates":[-82.964417,40.027433]},"properties":{"FID":55,"stop_id":"CLEWELS","stop_code":1136,"stop_name":"CLEVELAND AVE & WELDON AVE","stop_desc":" ","stop_lat":40.027433,"stop_lon":-82.964417,"zone_id":" ","stop_url":" ","location_t":" ","parent_sta":" ","wheelchair":0}},{"type":"Feature","id":56,"geometry":{"type":"Point","coordinates":[-82.964577,40.025441]},"properties":{"FID":56,"stop_id":"CLELAKS","stop_code":1137,"stop_name":"CLEVELAND AVE & E LAKEVIEW AVE","stop_desc":" ","stop_lat":40.025441,"stop_lon":-82.964577,"zone_id":" ","stop_url":" ","location_t":" ","parent_sta":" ","wheelchair":0}},{"type":"Feature","id":57,"geometry":{"type":"Point","coordinates":[-82.964823,40.02293]},"properties":{"FID":57,"stop_id":"CLEWEBS","stop_code":1139,"stop_name":"CLEVELAND AVE & E WEBER RD","stop_desc":" ","stop_lat":40.02293,"stop_lon":-82.964823,"zone_id":" ","stop_url":" ","location_t":" ","parent_sta":" ","wheelchair":0}},{"type":"Feature","id":58,"geometry":{"type":"Point","coordinates":[-82.965028,40.02034]},"properties":{"FID":58,"stop_id":"CLEABES","stop_code":1140,"stop_name":"CLEVELAND AVE & ABERDEEN AVE","stop_desc":" ","stop_lat":40.02034,"stop_lon":-82.965028,"zone_id":" ","stop_url":" ","location_t":" ","parent_sta":" ","wheelchair":0}},{"type":"Feature","id":59,"geometry":{"type":"Point","coordinates":[-82.965118,40.019214]},"properties":{"FID":59,"stop_id":"CLEGENS","stop_code":1141,"stop_name":"CLEVELAND AVE & GENESSEE AVE","stop_desc":" ","stop_lat":40.019214,"stop_lon":-82.965118,"zone_id":" ","stop_url":" ","location_t":" ","parent_sta":" ","wheelchair":0}},{"type":"Feature","id":60,"geometry":{"type":"Point","coordinates":[-82.967624,40.013425]},"properties":{"FID":60,"stop_id":"CLEHUDS","stop_code":1143,"stop_name":"CLEVELAND AVE & E HUDSON ST","stop_desc":" ","stop_lat":40.013425,"stop_lon":-82.967624,"zone_id":" ","stop_url":" ","location_t":" ","parent_sta":" ","wheelchair":0}},{"type":"Feature","id":61,"geometry":{"type":"Point","coordinates":[-82.929326,39.947688]},"properties":{"FID":61,"stop_id":"LIVVERW","stop_code":1990,"stop_name":"E LIVINGSTON AVE & VERNON RD","stop_desc":" ","stop_lat":39.947688,"stop_lon":-82.929326,"zone_id":" ","stop_url":" ","location_t":" ","parent_sta":" ","wheelchair":0}},{"type":"Feature","id":62,"geometry":{"type":"Point","coordinates":[-82.932096,39.947838]},"properties":{"FID":62,"stop_id":"LIVMONW","stop_code":1991,"stop_name":"E LIVINGSTON AVE & MONTROSE AVE","stop_desc":" ","stop_lat":39.947838,"stop_lon":-82.932096,"zone_id":" ","stop_url":" ","location_t":" ","parent_sta":" ","wheelchair":0}},{"type":"Feature","id":63,"geometry":{"type":"Point","coordinates":[-82.969128,40.010981]},"properties":{"FID":63,"stop_id":"CLECORS","stop_code":1144,"stop_name":"CLEVELAND AVE & CORDELL AVE","stop_desc":" ","stop_lat":40.010981,"stop_lon":-82.969128,"zone_id":" ","stop_url":" ","location_t":" ","parent_sta":" ","wheelchair":0}},{"type":"Feature","id":64,"geometry":{"type":"Point","coordinates":[-83.045965,40.023663]},"properties":{"FID":64,"stop_id":"FIS1247W","stop_code":1992,"stop_name":"1247 FISHINGER RD","stop_desc":" ","stop_lat":40.023663,"stop_lon":-83.045965,"zone_id":" ","stop_url":" ","location_t":" ","parent_sta":" ","wheelchair":0}},{"type":"Feature","id":65,"geometry":{"type":"Point","coordinates":[-82.969991,40.009574]},"properties":{"FID":65,"stop_id":"CLEMAYS","stop_code":1145,"stop_name":"CLEVELAND AVE & E MAYNARD AVE","stop_desc":" ","stop_lat":40.009574,"stop_lon":-82.969991,"zone_id":" ","stop_url":" ","location_t":" ","parent_sta":" ","wheelchair":0}},{"type":"Feature","id":66,"geometry":{"type":"Point","coordinates":[-82.936901,39.948101]},"properties":{"FID":66,"stop_id":"LIVCOLW","stop_code":1994,"stop_name":"E LIVINGSTON AVE & COLLEGE AVE","stop_desc":" ","stop_lat":39.948101,"stop_lon":-82.936901,"zone_id":" ","stop_url":" ","location_t":" ","parent_sta":" ","wheelchair":0}},{"type":"Feature","id":67,"geometry":{"type":"Point","coordinates":[-82.971065,40.007815]},"properties":{"FID":67,"stop_id":"CLE26TS","stop_code":1146,"stop_name":"CLEVELAND AVE & E 26TH AVE","stop_desc":" ","stop_lat":40.007815,"stop_lon":-82.971065,"zone_id":" ","stop_url":" ","location_t":" ","parent_sta":" ","wheelchair":0}},{"type":"Feature","id":68,"geometry":{"type":"Point","coordinates":[-82.893296,39.922975]},"properties":{"FID":68,"stop_id":"KIMBURE","stop_code":1995,"stop_name":"KIMBERLY PKWY N & BURGANDY LN","stop_desc":" ","stop_lat":39.922975,"stop_lon":-82.893296,"zone_id":" ","stop_url":" ","location_t":" ","parent_sta":" ","wheelchair":0}},{"type":"Feature","id":69,"geometry":{"type":"Point","coordinates":[-82.971912,40.006441]},"properties":{"FID":69,"stop_id":"CLE24TS","stop_code":1147,"stop_name":"CLEVELAND AVE & E 24TH AVE","stop_desc":" ","stop_lat":40.006441,"stop_lon":-82.971912,"zone_id":" ","stop_url":" ","location_t":" ","parent_sta":" ","wheelchair":0}},{"type":"Feature","id":70,"geometry":{"type":"Point","coordinates":[-82.941002,39.948295]},"properties":{"FID":70,"stop_id":"LIVMAYW","stop_code":1996,"stop_name":"E LIVINGSTON AVE & MAYFIELD PL","stop_desc":" ","stop_lat":39.948295,"stop_lon":-82.941002,"zone_id":" ","stop_url":" ","location_t":" ","parent_sta":" ","wheelchair":0}},{"type":"Feature","id":71,"geometry":{"type":"Point","coordinates":[-82.97307,40.004542]},"properties":{"FID":71,"stop_id":"CLE22NS","stop_code":1148,"stop_name":"CLEVELAND AVE & E 22ND AVE","stop_desc":" ","stop_lat":40.004542,"stop_lon":-82.97307,"zone_id":" ","stop_url":" ","location_t":" ","parent_sta":" ","wheelchair":0}},{"type":"Feature","id":72,"geometry":{"type":"Point","coordinates":[-82.948918,39.948691]},"properties":{"FID":72,"stop_id":"LIVRHOW","stop_code":1998,"stop_name":"E LIVINGSTON AVE & RHOADS AVE","stop_desc":" ","stop_lat":39.948691,"stop_lon":-82.948918,"zone_id":" ","stop_url":" ","location_t":" ","parent_sta":" ","wheelchair":0}},{"type":"Feature","id":73,"geometry":{"type":"Point","coordinates":[-82.975098,40.001395]},"properties":{"FID":73,"stop_id":"CLE18TS","stop_code":1150,"stop_name":"CLEVELAND AVE & E 18TH AVE","stop_desc":" ","stop_lat":40.001395,"stop_lon":-82.975098,"zone_id":" ","stop_url":" ","location_t":" ","parent_sta":" ","wheelchair":0}},{"type":"Feature","id":74,"geometry":{"type":"Point","coordinates":[-82.953394,39.948928]},"properties":{"FID":74,"stop_id":"LIVFAIW","stop_code":1999,"stop_name":"E LIVINGSTON AVE & FAIRWOOD AVE","stop_desc":" ","stop_lat":39.948928,"stop_lon":-82.953394,"zone_id":" ","stop_url":" ","location_t":" ","parent_sta":" ","wheelchair":0}},{"type":"Feature","id":75,"geometry":{"type":"Point","coordinates":[-82.976077,39.99993]},"properties":{"FID":75,"stop_id":"CLE17TS","stop_code":1151,"stop_name":"CLEVELAND AVE & E 17TH AVE","stop_desc":" ","stop_lat":39.99993,"stop_lon":-82.976077,"zone_id":" ","stop_url":" ","location_t":" ","parent_sta":" ","wheelchair":0}},{"type":"Feature","id":76,"geometry":{"type":"Point","coordinates":[-82.866038,39.848867]},"properties":{"FID":76,"stop_id":"GROLITSE","stop_code":2001,"stop_name":"GROVEPORT RD & LITHOPOLIS RD","stop_desc":" ","stop_lat":39.848867,"stop_lon":-82.866038,"zone_id":" ","stop_url":" ","location_t":" ","parent_sta":" ","wheelchair":0}},{"type":"Feature","id":77,"geometry":{"type":"Point","coordinates":[-82.976748,39.998827]},"properties":{"FID":77,"stop_id":"CLE15TS","stop_code":1152,"stop_name":"CLEVELAND AVE & E 15TH AVE","stop_desc":" ","stop_lat":39.998827,"stop_lon":-82.976748,"zone_id":" ","stop_url":" ","location_t":" ","parent_sta":" ","wheelchair":0}},{"type":"Feature","id":78,"geometry":{"type":"Point","coordinates":[-82.957908,39.949148]},"properties":{"FID":78,"stop_id":"LIVLILW","stop_code":2002,"stop_name":"E LIVINGSTON AVE & LILLEY AVE","stop_desc":" ","stop_lat":39.949148,"stop_lon":-82.957908,"zone_id":" ","stop_url":" ","location_t":" ","parent_sta":" ","wheelchair":0}},{"type":"Feature","id":79,"geometry":{"type":"Point","coordinates":[-83.034392,40.001211]},"properties":{"FID":79,"stop_id":"KEN205N","stop_code":1153,"stop_name":"2050 KENNY RD","stop_desc":" ","stop_lat":40.001211,"stop_lon":-83.034392,"zone_id":" ","stop_url":" ","location_t":" ","parent_sta":" ","wheelchair":0}},{"type":"Feature","id":80,"geometry":{"type":"Point","coordinates":[-82.865203,39.848935]},"properties":{"FID":80,"stop_id":"GROLITWE","stop_code":2003,"stop_name":"GROVEPORT RD & LITHOPOLIS RD","stop_desc":" ","stop_lat":39.848935,"stop_lon":-82.865203,"zone_id":" ","stop_url":" ","location_t":" ","parent_sta":" ","wheelchair":0}},{"type":"Feature","id":81,"geometry":{"type":"Point","coordinates":[-82.980264,39.995158]},"properties":{"FID":81,"stop_id":"CLECHIS","stop_code":1154,"stop_name":"CLEVELAND AVE & CHITTENDEN AVE","stop_desc":" ","stop_lat":39.995158,"stop_lon":-82.980264,"zone_id":" ","stop_url":" ","location_t":" ","parent_sta":" ","wheelchair":0}},{"type":"Feature","id":82,"geometry":{"type":"Point","coordinates":[-82.962846,39.949392]},"properties":{"FID":82,"stop_id":"LIVLOCW","stop_code":2005,"stop_name":"E LIVINGSTON AVE & LOCKBOURNE RD","stop_desc":" ","stop_lat":39.949392,"stop_lon":-82.962846,"zone_id":" ","stop_url":" ","location_t":" ","parent_sta":" ","wheelchair":0}},{"type":"Feature","id":83,"geometry":{"type":"Point","coordinates":[-82.981548,39.993929]},"properties":{"FID":83,"stop_id":"CLE11TS","stop_code":1155,"stop_name":"CLEVELAND AVE & E 11TH AVE","stop_desc":" ","stop_lat":39.993929,"stop_lon":-82.981548,"zone_id":" ","stop_url":" ","location_t":" ","parent_sta":" ","wheelchair":0}},{"type":"Feature","id":84,"geometry":{"type":"Point","coordinates":[-82.967516,39.949613]},"properties":{"FID":84,"stop_id":"LIVWILW","stop_code":2006,"stop_name":"E LIVINGSTON AVE & WILSON AVE","stop_desc":" ","stop_lat":39.949613,"stop_lon":-82.967516,"zone_id":" ","stop_url":" ","location_t":" ","parent_sta":" ","wheelchair":0}},{"type":"Feature","id":85,"geometry":{"type":"Point","coordinates":[-82.970345,39.949748]},"properties":{"FID":85,"stop_id":"LIVCHAW","stop_code":2008,"stop_name":"E LIVINGSTON AVE & S CHAMPION AVE","stop_desc":" ","stop_lat":39.949748,"stop_lon":-82.970345,"zone_id":" ","stop_url":" ","location_t":" ","parent_sta":" ","wheelchair":0}},{"type":"Feature","id":86,"geometry":{"type":"Point","coordinates":[-82.971857,39.949822]},"properties":{"FID":86,"stop_id":"LIVOHIW","stop_code":2009,"stop_name":"E LIVINGSTON AVE & S OHIO AVE","stop_desc":" ","stop_lat":39.949822,"stop_lon":-82.971857,"zone_id":" ","stop_url":" ","location_t":" ","parent_sta":" ","wheelchair":0}},{"type":"Feature","id":87,"geometry":{"type":"Point","coordinates":[-82.984812,39.990797]},"properties":{"FID":87,"stop_id":"CLECAMS","stop_code":1157,"stop_name":"CLEVELAND AVE & CAMDEN AVE","stop_desc":" ","stop_lat":39.990797,"stop_lon":-82.984812,"zone_id":" ","stop_url":" ","location_t":" ","parent_sta":" ","wheelchair":0}},{"type":"Feature","id":88,"geometry":{"type":"Point","coordinates":[-82.980546,39.951749]},"properties":{"FID":88,"stop_id":"LIVANNW","stop_code":2012,"stop_name":"E LIVINGSTON AVE & ANN ST","stop_desc":" ","stop_lat":39.951749,"stop_lon":-82.980546,"zone_id":" ","stop_url":" ","location_t":" ","parent_sta":" ","wheelchair":0}},{"type":"Feature","id":89,"geometry":{"type":"Point","coordinates":[-82.987898,39.98779]},"properties":{"FID":89,"stop_id":"CLEESSS","stop_code":1158,"stop_name":"CLEVELAND AVE & ESSEX AVE","stop_desc":" ","stop_lat":39.98779,"stop_lon":-82.987898,"zone_id":" ","stop_url":" ","location_t":" ","parent_sta":" ","wheelchair":0}},{"type":"Feature","id":90,"geometry":{"type":"Point","coordinates":[-82.983164,39.95232]},"properties":{"FID":90,"stop_id":"LIVPARW","stop_code":2013,"stop_name":"E LIVINGSTON AVE & PARSONS AVE","stop_desc":" ","stop_lat":39.95232,"stop_lon":-82.983164,"zone_id":" ","stop_url":" ","location_t":" ","parent_sta":" ","wheelchair":0}},{"type":"Feature","id":91,"geometry":{"type":"Point","coordinates":[-82.988757,39.952509]},"properties":{"FID":91,"stop_id":"LIVGRANW","stop_code":2015,"stop_name":"E LIVINGSTON AVE & S GRANT AVE","stop_desc":" ","stop_lat":39.952509,"stop_lon":-82.988757,"zone_id":" ","stop_url":" ","location_t":" ","parent_sta":" ","wheelchair":0}},{"type":"Feature","id":92,"geometry":{"type":"Point","coordinates":[-82.989635,39.981173]},"properties":{"FID":92,"stop_id":"CLEREYS","stop_code":1162,"stop_name":"CLEVELAND AVE & REYNOLDS AVE","stop_desc":" ","stop_lat":39.981173,"stop_lon":-82.989635,"zone_id":" ","stop_url":" ","location_t":" ","parent_sta":" ","wheelchair":0}},{"type":"Feature","id":93,"geometry":{"type":"Point","coordinates":[-82.99312,39.952709]},"properties":{"FID":93,"stop_id":"LIVMOHW","stop_code":2016,"stop_name":"E LIVINGSTON AVE & MOHAWK ST","stop_desc":" ","stop_lat":39.952709,"stop_lon":-82.99312,"zone_id":" ","stop_url":" ","location_t":" ","parent_sta":" ","wheelchair":0}},{"type":"Feature","id":94,"geometry":{"type":"Point","coordinates":[-82.990338,39.972679]},"properties":{"FID":94,"stop_id":"CLE427S","stop_code":1163,"stop_name":"427 CLEVELAND AVE","stop_desc":" ","stop_lat":39.972679,"stop_lon":-82.990338,"zone_id":" ","stop_url":" ","location_t":" ","parent_sta":" ","wheelchair":0}},{"type":"Feature","id":95,"geometry":{"type":"Point","coordinates":[-82.996165,39.953864]},"properties":{"FID":95,"stop_id":"FUL3RDW","stop_code":2017,"stop_name":"E FULTON ST & S 3RD ST","stop_desc":" ","stop_lat":39.953864,"stop_lon":-82.996165,"zone_id":" ","stop_url":" ","location_t":" ","parent_sta":" ","wheelchair":0}},{"type":"Feature","id":96,"geometry":{"type":"Point","coordinates":[-82.990554,39.969412]},"properties":{"FID":96,"stop_id":"CLEMOUS","stop_code":1166,"stop_name":"CLEVELAND AVE & MOUNT VERNON AVE","stop_desc":" ","stop_lat":39.969412,"stop_lon":-82.990554,"zone_id":" ","stop_url":" ","location_t":" ","parent_sta":" ","wheelchair":0}},{"type":"Feature","id":97,"geometry":{"type":"Point","coordinates":[-82.998468,39.953592]},"properties":{"FID":97,"stop_id":"FULHIGW","stop_code":2018,"stop_name":"E FULTON ST & S HIGH ST","stop_desc":" ","stop_lat":39.953592,"stop_lon":-82.998468,"zone_id":" ","stop_url":" ","location_t":" ","parent_sta":" ","wheelchair":0}},{"type":"Feature","id":98,"geometry":{"type":"Point","coordinates":[-82.977962,39.964733]},"properties":{"FID":98,"stop_id":"BRODOUE","stop_code":1167,"stop_name":"E BROAD ST & S DOUGLAS ST","stop_desc":" ","stop_lat":39.964733,"stop_lon":-82.977962,"zone_id":" ","stop_url":" ","location_t":" ","parent_sta":" ","wheelchair":0}},{"type":"Feature","id":99,"geometry":{"type":"Point","coordinates":[-82.882558,39.851311]},"properties":{"FID":99,"stop_id":"MAIFROW","stop_code":2019,"stop_name":"MAIN ST & FRONT ST","stop_desc":" ","stop_lat":39.851311,"stop_lon":-82.882558,"zone_id":" ","stop_url":" ","location_t":" ","parent_sta":" ","wheelchair":0}},{"type":"Feature","id":100,"geometry":{"type":"Point","coordinates":[-82.896041,39.854365]},"properties":{"FID":100,"stop_id":"MAIHENNW","stop_code":2020,"stop_name":"MAIN ST & HENDRON RD","stop_desc":" ","stop_lat":39.854365,"stop_lon":-82.896041,"zone_id":" ","stop_url":" ","location_t":" ","parent_sta":" ","wheelchair":0}},{"type":"Feature","id":101,"geometry":{"type":"Point","coordinates":[-82.901904,39.973168]},"properties":{"FID":101,"stop_id":"BROMAPE","stop_code":1168,"stop_name":"E BROAD ST & MAPLEWOOD AVE","stop_desc":" ","stop_lat":39.973168,"stop_lon":-82.901904,"zone_id":" ","stop_url":" ","location_t":" ","parent_sta":" ","wheelchair":0}},{"type":"Feature","id":102,"geometry":{"type":"Point","coordinates":[-82.915029,39.861881]},"properties":{"FID":102,"stop_id":"GROSWINW","stop_code":2021,"stop_name":"GROVEPORT RD & SWISHER RD","stop_desc":" ","stop_lat":39.861881,"stop_lon":-82.915029,"zone_id":" ","stop_url":" ","location_t":" ","parent_sta":" ","wheelchair":0}},{"type":"Feature","id":103,"geometry":{"type":"Point","coordinates":[-82.899294,39.973432]},"properties":{"FID":103,"stop_id":"BROCOLE","stop_code":1169,"stop_name":"E BROAD ST & COLLINGWOOD AVE","stop_desc":" ","stop_lat":39.973432,"stop_lon":-82.899294,"zone_id":" ","stop_url":" ","location_t":" ","parent_sta":" ","wheelchair":0}},{"type":"Feature","id":104,"geometry":{"type":"Point","coordinates":[-82.924157,39.865985]},"properties":{"FID":104,"stop_id":"GROBIXNW","stop_code":2022,"stop_name":"GROVEPORT RD & BIXBY RD","stop_desc":" ","stop_lat":39.865985,"stop_lon":-82.924157,"zone_id":" ","stop_url":" ","location_t":" ","parent_sta":" ","wheelchair":0}},{"type":"Feature","id":105,"geometry":{"type":"Point","coordinates":[-82.879085,39.975546]},"properties":{"FID":105,"stop_id":"BROHOLE","stop_code":1170,"stop_name":"E BROAD ST & HOLIDAY LANES","stop_desc":" ","stop_lat":39.975546,"stop_lon":-82.879085,"zone_id":" ","stop_url":" ","location_t":" ","parent_sta":" ","wheelchair":0}},{"type":"Feature","id":106,"geometry":{"type":"Point","coordinates":[-82.990466,39.961942]},"properties":{"FID":106,"stop_id":"OAKGRANE","stop_code":2023,"stop_name":"OAK ST & S GRANT AVE","stop_desc":" ","stop_lat":39.961942,"stop_lon":-82.990466,"zone_id":" ","stop_url":" ","location_t":" ","parent_sta":" ","wheelchair":0}},{"type":"Feature","id":107,"geometry":{"type":"Point","coordinates":[-82.860342,39.977563]},"properties":{"FID":107,"stop_id":"BROCARE","stop_code":1171,"stop_name":"E BROAD ST & CARDINAL PARK DR","stop_desc":" ","stop_lat":39.977563,"stop_lon":-82.860342,"zone_id":" ","stop_url":" ","location_t":" ","parent_sta":" ","wheelchair":0}},{"type":"Feature","id":108,"geometry":{"type":"Point","coordinates":[-82.98722,39.962331]},"properties":{"FID":108,"stop_id":"OAKWASE","stop_code":2025,"stop_name":"OAK ST & S WASHINGTON AVE","stop_desc":" ","stop_lat":39.962331,"stop_lon":-82.98722,"zone_id":" ","stop_url":" ","location_t":" ","parent_sta":" ","wheelchair":0}},{"type":"Feature","id":109,"geometry":{"type":"Point","coordinates":[-82.983762,39.962752]},"properties":{"FID":109,"stop_id":"OAKLESE","stop_code":2026,"stop_name":"OAK ST & LESTER DR","stop_desc":" ","stop_lat":39.962752,"stop_lon":-82.983762,"zone_id":" ","stop_url":" ","location_t":" ","parent_sta":" ","wheelchair":0}},{"type":"Feature","id":110,"geometry":{"type":"Point","coordinates":[-82.981065,39.963107]},"properties":{"FID":110,"stop_id":"OAKPARE","stop_code":2027,"stop_name":"OAK ST & PARSONS AVE","stop_desc":" ","stop_lat":39.963107,"stop_lon":-82.981065,"zone_id":" ","stop_url":" ","location_t":" ","parent_sta":" ","wheelchair":0}},{"type":"Feature","id":111,"geometry":{"type":"Point","coordinates":[-82.978499,39.963]},"properties":{"FID":111,"stop_id":"OAKMONE","stop_code":2028,"stop_name":"OAK ST & S MONROE AVE","stop_desc":" ","stop_lat":39.963,"stop_lon":-82.978499,"zone_id":" ","stop_url":" ","location_t":" ","parent_sta":" ","wheelchair":0}},{"type":"Feature","id":112,"geometry":{"type":"Point","coordinates":[-82.860237,39.977797]},"properties":{"FID":112,"stop_id":"BROCARW","stop_code":1172,"stop_name":"E BROAD ST & CARDINAL PARK DR","stop_desc":" ","stop_lat":39.977797,"stop_lon":-82.860237,"zone_id":" ","stop_url":" ","location_t":" ","parent_sta":" ","wheelchair":0}},{"type":"Feature","id":113,"geometry":{"type":"Point","coordinates":[-82.976117,39.962874]},"properties":{"FID":113,"stop_id":"OAK18TE","stop_code":2029,"stop_name":"OAK ST & S 18TH ST","stop_desc":" ","stop_lat":39.962874,"stop_lon":-82.976117,"zone_id":" ","stop_url":" ","location_t":" ","parent_sta":" ","wheelchair":0}},{"type":"Feature","id":114,"geometry":{"type":"Point","coordinates":[-82.875928,39.964279]},"properties":{"FID":114,"stop_id":"HAMETNN","stop_code":1174,"stop_name":"S HAMILTON RD & ETNA RD","stop_desc":" ","stop_lat":39.964279,"stop_lon":-82.875928,"zone_id":" ","stop_url":" ","location_t":" ","parent_sta":" ","wheelchair":0}},{"type":"Feature","id":115,"geometry":{"type":"Point","coordinates":[-82.970792,39.962663]},"properties":{"FID":115,"stop_id":"OAKOHIE","stop_code":2032,"stop_name":"OAK ST & S OHIO AVE","stop_desc":" ","stop_lat":39.962663,"stop_lon":-82.970792,"zone_id":" ","stop_url":" ","location_t":" ","parent_sta":" ","wheelchair":0}},{"type":"Feature","id":116,"geometry":{"type":"Point","coordinates":[-82.968698,39.962565]},"properties":{"FID":116,"stop_id":"OAKCHAE","stop_code":2033,"stop_name":"OAK ST & S CHAMPION AVE","stop_desc":" ","stop_lat":39.962565,"stop_lon":-82.968698,"zone_id":" ","stop_url":" ","location_t":" ","parent_sta":" ","wheelchair":0}},{"type":"Feature","id":117,"geometry":{"type":"Point","coordinates":[-83.003188,39.975825]},"properties":{"FID":117,"stop_id":"HIGRUSN","stop_code":1178,"stop_name":"N HIGH ST & E RUSSELL ST","stop_desc":" ","stop_lat":39.975825,"stop_lon":-83.003188,"zone_id":" ","stop_url":" ","location_t":" ","parent_sta":" ","wheelchair":0}},{"type":"Feature","id":118,"geometry":{"type":"Point","coordinates":[-82.966482,39.962491]},"properties":{"FID":118,"stop_id":"OAKWILE","stop_code":2034,"stop_name":"OAK ST & WILSON AVE","stop_desc":" ","stop_lat":39.962491,"stop_lon":-82.966482,"zone_id":" ","stop_url":" ","location_t":" ","parent_sta":" ","wheelchair":0}},{"type":"Feature","id":119,"geometry":{"type":"Point","coordinates":[-83.00353,39.977556]},"properties":{"FID":119,"stop_id":"HIGBUTN","stop_code":1179,"stop_name":"N HIGH ST & BUTTLES AVE","stop_desc":" ","stop_lat":39.977556,"stop_lon":-83.00353,"zone_id":" ","stop_url":" ","location_t":" ","parent_sta":" ","wheelchair":0}},{"type":"Feature","id":120,"geometry":{"type":"Point","coordinates":[-82.963441,39.962377]},"properties":{"FID":120,"stop_id":"OAKLATE","stop_code":2035,"stop_name":"OAK ST & LATTA AVE","stop_desc":" ","stop_lat":39.962377,"stop_lon":-82.963441,"zone_id":" ","stop_url":" ","location_t":" ","parent_sta":" ","wheelchair":0}},{"type":"Feature","id":121,"geometry":{"type":"Point","coordinates":[-82.949884,39.960125]},"properties":{"FID":121,"stop_id":"BRYRHOW","stop_code":2036,"stop_name":"BRYDEN RD & RHOADS AVE","stop_desc":" ","stop_lat":39.960125,"stop_lon":-82.949884,"zone_id":" ","stop_url":" ","location_t":" ","parent_sta":" ","wheelchair":0}},{"type":"Feature","id":122,"geometry":{"type":"Point","coordinates":[-82.96053,39.962337]},"properties":{"FID":122,"stop_id":"OAKMILE","stop_code":2037,"stop_name":"OAK ST & MILLER AVE","stop_desc":" ","stop_lat":39.962337,"stop_lon":-82.96053,"zone_id":" ","stop_url":" ","location_t":" ","parent_sta":" ","wheelchair":0}},{"type":"Feature","id":123,"geometry":{"type":"Point","coordinates":[-82.95803,39.9623]},"properties":{"FID":123,"stop_id":"OAKKELE","stop_code":2038,"stop_name":"OAK ST & KELTON AVE","stop_desc":" ","stop_lat":39.9623,"stop_lon":-82.95803,"zone_id":" ","stop_url":" ","location_t":" ","parent_sta":" ","wheelchair":0}},{"type":"Feature","id":124,"geometry":{"type":"Point","coordinates":[-82.954456,39.962188]},"properties":{"FID":124,"stop_id":"OAKMORE","stop_code":2039,"stop_name":"OAK ST & MORRISON AVE","stop_desc":" ","stop_lat":39.962188,"stop_lon":-82.954456,"zone_id":" ","stop_url":" ","location_t":" ","parent_sta":" ","wheelchair":0}},{"type":"Feature","id":125,"geometry":{"type":"Point","coordinates":[-82.952495,39.960189]},"properties":{"FID":125,"stop_id":"BRYFAIW","stop_code":2041,"stop_name":"BRYDEN RD & FAIRWOOD AVE","stop_desc":" ","stop_lat":39.960189,"stop_lon":-82.952495,"zone_id":" ","stop_url":" ","location_t":" ","parent_sta":" ","wheelchair":0}},{"type":"Feature","id":126,"geometry":{"type":"Point","coordinates":[-83.004658,39.983318]},"properties":{"FID":126,"stop_id":"HIG2NDN","stop_code":1182,"stop_name":"N HIGH ST & E 2ND AVE","stop_desc":" ","stop_lat":39.983318,"stop_lon":-83.004658,"zone_id":" ","stop_url":" ","location_t":" ","parent_sta":" ","wheelchair":0}},{"type":"Feature","id":127,"geometry":{"type":"Point","coordinates":[-82.952865,39.962182]},"properties":{"FID":127,"stop_id":"OAKFAIW","stop_code":2043,"stop_name":"OAK ST & FAIRWOOD AVE","stop_desc":" ","stop_lat":39.962182,"stop_lon":-82.952865,"zone_id":" ","stop_url":" ","location_t":" ","parent_sta":" ","wheelchair":0}},{"type":"Feature","id":128,"geometry":{"type":"Point","coordinates":[-83.005031,39.985183]},"properties":{"FID":128,"stop_id":"HIG4THN","stop_code":1183,"stop_name":"N HIGH ST & E 4TH AVE","stop_desc":" ","stop_lat":39.985183,"stop_lon":-83.005031,"zone_id":" ","stop_url":" ","location_t":" ","parent_sta":" ","wheelchair":0}},{"type":"Feature","id":129,"geometry":{"type":"Point","coordinates":[-82.95506,39.962294]},"properties":{"FID":129,"stop_id":"OAKMORW","stop_code":2044,"stop_name":"OAK ST & MORRISON AVE","stop_desc":" ","stop_lat":39.962294,"stop_lon":-82.95506,"zone_id":" ","stop_url":" ","location_t":" ","parent_sta":" ","wheelchair":0}},{"type":"Feature","id":130,"geometry":{"type":"Point","coordinates":[-82.958808,39.962395]},"properties":{"FID":130,"stop_id":"OAKKELW","stop_code":2045,"stop_name":"OAK ST & KELTON AVE","stop_desc":" ","stop_lat":39.962395,"stop_lon":-82.958808,"zone_id":" ","stop_url":" ","location_t":" ","parent_sta":" ","wheelchair":0}},{"type":"Feature","id":131,"geometry":{"type":"Point","coordinates":[-83.005524,39.987609]},"properties":{"FID":131,"stop_id":"HIG5THN","stop_code":1184,"stop_name":"N HIGH ST & E 5TH AVE","stop_desc":" ","stop_lat":39.987609,"stop_lon":-83.005524,"zone_id":" ","stop_url":" ","location_t":" ","parent_sta":" ","wheelchair":0}},{"type":"Feature","id":132,"geometry":{"type":"Point","coordinates":[-82.960713,39.962448]},"properties":{"FID":132,"stop_id":"OAKMILW","stop_code":2046,"stop_name":"OAK ST & MILLER AVE","stop_desc":" ","stop_lat":39.962448,"stop_lon":-82.960713,"zone_id":" ","stop_url":" ","location_t":" ","parent_sta":" ","wheelchair":0}},{"type":"Feature","id":133,"geometry":{"type":"Point","coordinates":[-83.005819,39.989174]},"properties":{"FID":133,"stop_id":"HIG6THN","stop_code":1185,"stop_name":"N HIGH ST & E 6TH AVE","stop_desc":" ","stop_lat":39.989174,"stop_lon":-83.005819,"zone_id":" ","stop_url":" ","location_t":" ","parent_sta":" ","wheelchair":0}},{"type":"Feature","id":134,"geometry":{"type":"Point","coordinates":[-83.006225,39.991224]},"properties":{"FID":134,"stop_id":"HIGEUCN","stop_code":1186,"stop_name":"N HIGH ST & EUCLID AVE","stop_desc":" ","stop_lat":39.991224,"stop_lon":-83.006225,"zone_id":" ","stop_url":" ","location_t":" ","parent_sta":" ","wheelchair":0}},{"type":"Feature","id":135,"geometry":{"type":"Point","coordinates":[-82.963168,39.962504]},"properties":{"FID":135,"stop_id":"OAKLATW","stop_code":2047,"stop_name":"OAK ST & LATTA AVE","stop_desc":" ","stop_lat":39.962504,"stop_lon":-82.963168,"zone_id":" ","stop_url":" ","location_t":" ","parent_sta":" ","wheelchair":0}},{"type":"Feature","id":136,"geometry":{"type":"Point","coordinates":[-83.007178,39.99602]},"properties":{"FID":136,"stop_id":"HIGCHIN","stop_code":1188,"stop_name":"N HIGH ST & CHITTENDEN AVE","stop_desc":" ","stop_lat":39.99602,"stop_lon":-83.007178,"zone_id":" ","stop_url":" ","location_t":" ","parent_sta":" ","wheelchair":0}},{"type":"Feature","id":137,"geometry":{"type":"Point","coordinates":[-83.007506,39.997729]},"properties":{"FID":137,"stop_id":"HIG13TN","stop_code":1189,"stop_name":"N HIGH ST & E 13TH AVE","stop_desc":" ","stop_lat":39.997729,"stop_lon":-83.007506,"zone_id":" ","stop_url":" ","location_t":" ","parent_sta":" ","wheelchair":0}},{"type":"Feature","id":138,"geometry":{"type":"Point","coordinates":[-83.007989,40.000285]},"properties":{"FID":138,"stop_id":"HIG15TN","stop_code":1190,"stop_name":"N HIGH ST & E 15TH AVE","stop_desc":" ","stop_lat":40.000285,"stop_lon":-83.007989,"zone_id":" ","stop_url":" ","location_t":" ","parent_sta":" ","wheelchair":0}},{"type":"Feature","id":139,"geometry":{"type":"Point","coordinates":[-83.008642,40.003566]},"properties":{"FID":139,"stop_id":"HIGWOON","stop_code":1192,"stop_name":"N HIGH ST & W WOODRUFF AVE","stop_desc":" ","stop_lat":40.003566,"stop_lon":-83.008642,"zone_id":" ","stop_url":" ","location_t":" ","parent_sta":" ","wheelchair":0}},{"type":"Feature","id":140,"geometry":{"type":"Point","coordinates":[-82.966559,39.962598]},"properties":{"FID":140,"stop_id":"OAKWILW","stop_code":2048,"stop_name":"OAK ST & WILSON AVE","stop_desc":" ","stop_lat":39.962598,"stop_lon":-82.966559,"zone_id":" ","stop_url":" ","location_t":" ","parent_sta":" ","wheelchair":0}},{"type":"Feature","id":141,"geometry":{"type":"Point","coordinates":[-83.00921,40.006365]},"properties":{"FID":141,"stop_id":"HIGLANN","stop_code":1193,"stop_name":"N HIGH ST & E LANE AVE","stop_desc":" ","stop_lat":40.006365,"stop_lon":-83.00921,"zone_id":" ","stop_url":" ","location_t":" ","parent_sta":" ","wheelchair":0}},{"type":"Feature","id":142,"geometry":{"type":"Point","coordinates":[-82.968841,39.962674]},"properties":{"FID":142,"stop_id":"OAKCHAW","stop_code":2049,"stop_name":"OAK ST & S CHAMPION AVE","stop_desc":" ","stop_lat":39.962674,"stop_lon":-82.968841,"zone_id":" ","stop_url":" ","location_t":" ","parent_sta":" ","wheelchair":0}},{"type":"Feature","id":143,"geometry":{"type":"Point","coordinates":[-82.970942,39.962775]},"properties":{"FID":143,"stop_id":"OAKOHIW","stop_code":2050,"stop_name":"OAK ST & S OHIO AVE","stop_desc":" ","stop_lat":39.962775,"stop_lon":-82.970942,"zone_id":" ","stop_url":" ","location_t":" ","parent_sta":" ","wheelchair":0}},{"type":"Feature","id":144,"geometry":{"type":"Point","coordinates":[-82.974766,39.962924]},"properties":{"FID":144,"stop_id":"OAKHOFWF","stop_code":2052,"stop_name":"OAK ST & HOFFMAN AVE","stop_desc":" ","stop_lat":39.962924,"stop_lon":-82.974766,"zone_id":" ","stop_url":" ","location_t":" ","parent_sta":" ","wheelchair":0}},{"type":"Feature","id":145,"geometry":{"type":"Point","coordinates":[-82.977833,39.96305]},"properties":{"FID":145,"stop_id":"OAKDOUW","stop_code":2053,"stop_name":"OAK ST & S DOUGLAS ST","stop_desc":" ","stop_lat":39.96305,"stop_lon":-82.977833,"zone_id":" ","stop_url":" ","location_t":" ","parent_sta":" ","wheelchair":0}},{"type":"Feature","id":146,"geometry":{"type":"Point","coordinates":[-82.980719,39.963165]},"properties":{"FID":146,"stop_id":"OAKGARW","stop_code":2054,"stop_name":"OAK ST & S GARFIELD AVE","stop_desc":" ","stop_lat":39.963165,"stop_lon":-82.980719,"zone_id":" ","stop_url":" ","location_t":" ","parent_sta":" ","wheelchair":0}},{"type":"Feature","id":147,"geometry":{"type":"Point","coordinates":[-83.00949,40.007789]},"properties":{"FID":147,"stop_id":"HIGNORN","stop_code":1194,"stop_name":"N HIGH ST & E NORTHWOOD AVE","stop_desc":" ","stop_lat":40.007789,"stop_lon":-83.00949,"zone_id":" ","stop_url":" ","location_t":" ","parent_sta":" ","wheelchair":0}},{"type":"Feature","id":148,"geometry":{"type":"Point","coordinates":[-83.010044,40.009907]},"properties":{"FID":148,"stop_id":"HIGPATN","stop_code":1195,"stop_name":"N HIGH ST & PATTERSON AVE","stop_desc":" ","stop_lat":40.009907,"stop_lon":-83.010044,"zone_id":" ","stop_url":" ","location_t":" ","parent_sta":" ","wheelchair":0}},{"type":"Feature","id":149,"geometry":{"type":"Point","coordinates":[-82.986756,39.9604]},"properties":{"FID":149,"stop_id":"TOWWASW","stop_code":2055,"stop_name":"E TOWN ST & S WASHINGTON AVE","stop_desc":" ","stop_lat":39.9604,"stop_lon":-82.986756,"zone_id":" ","stop_url":" ","location_t":" ","parent_sta":" ","wheelchair":0}},{"type":"Feature","id":150,"geometry":{"type":"Point","coordinates":[-82.9837,39.962858]},"properties":{"FID":150,"stop_id":"OAKLESW","stop_code":2056,"stop_name":"OAK ST & LESTER DR","stop_desc":" ","stop_lat":39.962858,"stop_lon":-82.9837,"zone_id":" ","stop_url":" ","location_t":" ","parent_sta":" ","wheelchair":0}},{"type":"Feature","id":151,"geometry":{"type":"Point","coordinates":[-83.0105,40.011654]},"properties":{"FID":151,"stop_id":"HIGBLAN","stop_code":1196,"stop_name":"N HIGH ST & E BLAKE AVE","stop_desc":" ","stop_lat":40.011654,"stop_lon":-83.0105,"zone_id":" ","stop_url":" ","location_t":" ","parent_sta":" ","wheelchair":0}},{"type":"Feature","id":152,"geometry":{"type":"Point","coordinates":[-82.986373,39.962559]},"properties":{"FID":152,"stop_id":"OAKWASW","stop_code":2057,"stop_name":"OAK ST & S WASHINGTON AVE","stop_desc":" ","stop_lat":39.962559,"stop_lon":-82.986373,"zone_id":" ","stop_url":" ","location_t":" ","parent_sta":" ","wheelchair":0}},{"type":"Feature","id":153,"geometry":{"type":"Point","coordinates":[-83.011194,40.01426]},"properties":{"FID":153,"stop_id":"HIGHUDN","stop_code":1197,"stop_name":"N HIGH ST & E HUDSON ST","stop_desc":" ","stop_lat":40.01426,"stop_lon":-83.011194,"zone_id":" ","stop_url":" ","location_t":" ","parent_sta":" ","wheelchair":0}},{"type":"Feature","id":154,"geometry":{"type":"Point","coordinates":[-82.990342,39.96209]},"properties":{"FID":154,"stop_id":"OAKGRANW","stop_code":2059,"stop_name":"OAK ST & S GRANT AVE","stop_desc":" ","stop_lat":39.96209,"stop_lon":-82.990342,"zone_id":" ","stop_url":" ","location_t":" ","parent_sta":" ","wheelchair":0}},{"type":"Feature","id":155,"geometry":{"type":"Point","coordinates":[-83.011808,40.016549]},"properties":{"FID":155,"stop_id":"HIGDODN","stop_code":1198,"stop_name":"N HIGH ST & E DODRIDGE ST","stop_desc":" ","stop_lat":40.016549,"stop_lon":-83.011808,"zone_id":" ","stop_url":" ","location_t":" ","parent_sta":" ","wheelchair":0}},{"type":"Feature","id":156,"geometry":{"type":"Point","coordinates":[-83.056819,40.06434]},"properties":{"FID":156,"stop_id":"GODBETN","stop_code":2061,"stop_name":"GODOWN RD & BETHEL RD","stop_desc":" ","stop_lat":40.06434,"stop_lon":-83.056819,"zone_id":" ","stop_url":" ","location_t":" ","parent_sta":" ","wheelchair":0}},{"type":"Feature","id":157,"geometry":{"type":"Point","coordinates":[-83.04875,40.007019]},"properties":{"FID":157,"stop_id":"LANNORW","stop_code":2063,"stop_name":"W LANE AVE & NORTH STAR RD","stop_desc":" ","stop_lat":40.007019,"stop_lon":-83.04875,"zone_id":" ","stop_url":" ","location_t":" ","parent_sta":" ","wheelchair":0}},{"type":"Feature","id":158,"geometry":{"type":"Point","coordinates":[-82.989878,39.959899]},"properties":{"FID":158,"stop_id":"TOWGRAE","stop_code":2065,"stop_name":"E TOWN ST & S GRANT AVE","stop_desc":" ","stop_lat":39.959899,"stop_lon":-82.989878,"zone_id":" ","stop_url":" ","location_t":" ","parent_sta":" ","wheelchair":0}},{"type":"Feature","id":159,"geometry":{"type":"Point","coordinates":[-82.986557,39.960286]},"properties":{"FID":159,"stop_id":"TOWWASE","stop_code":2066,"stop_name":"E TOWN ST & S WASHINGTON AVE","stop_desc":" ","stop_lat":39.960286,"stop_lon":-82.986557,"zone_id":" ","stop_url":" ","location_t":" ","parent_sta":" ","wheelchair":0}},{"type":"Feature","id":160,"geometry":{"type":"Point","coordinates":[-82.983604,39.96061]},"properties":{"FID":160,"stop_id":"TOWLESE","stop_code":2067,"stop_name":"E TOWN ST & LESTER DR","stop_desc":" ","stop_lat":39.96061,"stop_lon":-82.983604,"zone_id":" ","stop_url":" ","location_t":" ","parent_sta":" ","wheelchair":0}},{"type":"Feature","id":161,"geometry":{"type":"Point","coordinates":[-82.981402,39.960597]},"properties":{"FID":161,"stop_id":"BRYPARE","stop_code":2068,"stop_name":"BRYDEN RD & PARSONS AVE","stop_desc":" ","stop_lat":39.960597,"stop_lon":-82.981402,"zone_id":" ","stop_url":" ","location_t":" ","parent_sta":" ","wheelchair":0}},{"type":"Feature","id":162,"geometry":{"type":"Point","coordinates":[-82.978672,39.96055]},"properties":{"FID":162,"stop_id":"BRYMONE","stop_code":2069,"stop_name":"BRYDEN RD & S MONROE AVE","stop_desc":" ","stop_lat":39.96055,"stop_lon":-82.978672,"zone_id":" ","stop_url":" ","location_t":" ","parent_sta":" ","wheelchair":0}},{"type":"Feature","id":163,"geometry":{"type":"Point","coordinates":[-82.975626,39.960503]},"properties":{"FID":163,"stop_id":"BRY18TE","stop_code":2070,"stop_name":"BRYDEN RD & S 18TH ST","stop_desc":" ","stop_lat":39.960503,"stop_lon":-82.975626,"zone_id":" ","stop_url":" ","location_t":" ","parent_sta":" ","wheelchair":0}},{"type":"Feature","id":164,"geometry":{"type":"Point","coordinates":[-82.972428,39.960441]},"properties":{"FID":164,"stop_id":"BRY21SE","stop_code":2071,"stop_name":"BRYDEN RD & S 21ST ST","stop_desc":" ","stop_lat":39.960441,"stop_lon":-82.972428,"zone_id":" ","stop_url":" ","location_t":" ","parent_sta":" ","wheelchair":0}},{"type":"Feature","id":165,"geometry":{"type":"Point","coordinates":[-82.968982,39.960389]},"properties":{"FID":165,"stop_id":"BRYCHAE","stop_code":2073,"stop_name":"BRYDEN RD & S CHAMPION AVE","stop_desc":" ","stop_lat":39.960389,"stop_lon":-82.968982,"zone_id":" ","stop_url":" ","location_t":" ","parent_sta":" ","wheelchair":0}},{"type":"Feature","id":166,"geometry":{"type":"Point","coordinates":[-82.966618,39.960347]},"properties":{"FID":166,"stop_id":"BRYWILE","stop_code":2074,"stop_name":"BRYDEN RD & WILSON AVE","stop_desc":" ","stop_lat":39.960347,"stop_lon":-82.966618,"zone_id":" ","stop_url":" ","location_t":" ","parent_sta":" ","wheelchair":0}},{"type":"Feature","id":167,"geometry":{"type":"Point","coordinates":[-82.962925,39.960287]},"properties":{"FID":167,"stop_id":"BRYOPPE","stop_code":2075,"stop_name":"BRYDEN RD & KENDALL PL","stop_desc":" ","stop_lat":39.960287,"stop_lon":-82.962925,"zone_id":" ","stop_url":" ","location_t":" ","parent_sta":" ","wheelchair":0}},{"type":"Feature","id":168,"geometry":{"type":"Point","coordinates":[-82.960229,39.960242]},"properties":{"FID":168,"stop_id":"BRYMILE","stop_code":2076,"stop_name":"BRYDEN RD & MILLER AVE","stop_desc":" ","stop_lat":39.960242,"stop_lon":-82.960229,"zone_id":" ","stop_url":" ","location_t":" ","parent_sta":" ","wheelchair":0}},{"type":"Feature","id":169,"geometry":{"type":"Point","coordinates":[-82.957794,39.960211]},"properties":{"FID":169,"stop_id":"BRYKELE","stop_code":2077,"stop_name":"BRYDEN RD & KELTON AVE","stop_desc":" ","stop_lat":39.960211,"stop_lon":-82.957794,"zone_id":" ","stop_url":" ","location_t":" ","parent_sta":" ","wheelchair":0}},{"type":"Feature","id":170,"geometry":{"type":"Point","coordinates":[-82.955148,39.960142]},"properties":{"FID":170,"stop_id":"BRYMORE","stop_code":2078,"stop_name":"BRYDEN RD & MORRISON AVE","stop_desc":" ","stop_lat":39.960142,"stop_lon":-82.955148,"zone_id":" ","stop_url":" ","location_t":" ","parent_sta":" ","wheelchair":0}},{"type":"Feature","id":171,"geometry":{"type":"Point","coordinates":[-82.952904,39.96009]},"properties":{"FID":171,"stop_id":"BRYFAIE","stop_code":2079,"stop_name":"BRYDEN RD & FAIRWOOD AVE","stop_desc":" ","stop_lat":39.96009,"stop_lon":-82.952904,"zone_id":" ","stop_url":" ","location_t":" ","parent_sta":" ","wheelchair":0}},{"type":"Feature","id":172,"geometry":{"type":"Point","coordinates":[-82.954738,39.960251]},"properties":{"FID":172,"stop_id":"BRYMORW","stop_code":2082,"stop_name":"BRYDEN RD & MORRISON AVE","stop_desc":" ","stop_lat":39.960251,"stop_lon":-82.954738,"zone_id":" ","stop_url":" ","location_t":" ","parent_sta":" ","wheelchair":0}},{"type":"Feature","id":173,"geometry":{"type":"Point","coordinates":[-82.958289,39.960316]},"properties":{"FID":173,"stop_id":"BRYKELW","stop_code":2083,"stop_name":"BRYDEN RD & KELTON AVE","stop_desc":" ","stop_lat":39.960316,"stop_lon":-82.958289,"zone_id":" ","stop_url":" ","location_t":" ","parent_sta":" ","wheelchair":0}},{"type":"Feature","id":174,"geometry":{"type":"Point","coordinates":[-82.960281,39.960349]},"properties":{"FID":174,"stop_id":"BRYMILW","stop_code":2084,"stop_name":"BRYDEN RD & MILLER AVE","stop_desc":" ","stop_lat":39.960349,"stop_lon":-82.960281,"zone_id":" ","stop_url":" ","location_t":" ","parent_sta":" ","wheelchair":0}},{"type":"Feature","id":175,"geometry":{"type":"Point","coordinates":[-82.963271,39.960403]},"properties":{"FID":175,"stop_id":"BRYALTW","stop_code":2085,"stop_name":"BRYDEN RD & LOEFFLER AVE","stop_desc":" ","stop_lat":39.960403,"stop_lon":-82.963271,"zone_id":" ","stop_url":" ","location_t":" ","parent_sta":" ","wheelchair":0}},{"type":"Feature","id":176,"geometry":{"type":"Point","coordinates":[-82.966225,39.960463]},"properties":{"FID":176,"stop_id":"BRYWILW","stop_code":2086,"stop_name":"BRYDEN RD & WILSON AVE","stop_desc":" ","stop_lat":39.960463,"stop_lon":-82.966225,"zone_id":" ","stop_url":" ","location_t":" ","parent_sta":" ","wheelchair":0}},{"type":"Feature","id":177,"geometry":{"type":"Point","coordinates":[-82.969013,39.960494]},"properties":{"FID":177,"stop_id":"BRYCHAW","stop_code":2087,"stop_name":"BRYDEN RD & S CHAMPION AVE","stop_desc":" ","stop_lat":39.960494,"stop_lon":-82.969013,"zone_id":" ","stop_url":" ","location_t":" ","parent_sta":" ","wheelchair":0}},{"type":"Feature","id":178,"geometry":{"type":"Point","coordinates":[-82.970891,39.960537]},"properties":{"FID":178,"stop_id":"BRYOHIW","stop_code":2088,"stop_name":"BRYDEN RD & S OHIO AVE","stop_desc":" ","stop_lat":39.960537,"stop_lon":-82.970891,"zone_id":" ","stop_url":" ","location_t":" ","parent_sta":" ","wheelchair":0}},{"type":"Feature","id":179,"geometry":{"type":"Point","coordinates":[-82.978813,39.960677]},"properties":{"FID":179,"stop_id":"BRYMONW","stop_code":2091,"stop_name":"BRYDEN RD & S MONROE AVE","stop_desc":" ","stop_lat":39.960677,"stop_lon":-82.978813,"zone_id":" ","stop_url":" ","location_t":" ","parent_sta":" ","wheelchair":0}},{"type":"Feature","id":180,"geometry":{"type":"Point","coordinates":[-82.981644,39.960724]},"properties":{"FID":180,"stop_id":"BRYPARW","stop_code":2092,"stop_name":"BRYDEN RD & PARSONS AVE","stop_desc":" ","stop_lat":39.960724,"stop_lon":-82.981644,"zone_id":" ","stop_url":" ","location_t":" ","parent_sta":" ","wheelchair":0}},{"type":"Feature","id":181,"geometry":{"type":"Point","coordinates":[-82.983454,39.960763]},"properties":{"FID":181,"stop_id":"TOWLESW","stop_code":2093,"stop_name":"E TOWN ST & LESTER DR","stop_desc":" ","stop_lat":39.960763,"stop_lon":-82.983454,"zone_id":" ","stop_url":" ","location_t":" ","parent_sta":" ","wheelchair":0}},{"type":"Feature","id":182,"geometry":{"type":"Point","coordinates":[-82.990213,39.960003]},"properties":{"FID":182,"stop_id":"TOWGRAW","stop_code":2094,"stop_name":"E TOWN ST & S GRANT AVE","stop_desc":" ","stop_lat":39.960003,"stop_lon":-82.990213,"zone_id":" ","stop_url":" ","location_t":" ","parent_sta":" ","wheelchair":0}},{"type":"Feature","id":183,"geometry":{"type":"Point","coordinates":[-82.990695,39.939697]},"properties":{"FID":183,"stop_id":"JAETHUS","stop_code":2105,"stop_name":"JAEGER ST & THURMAN AVE","stop_desc":" ","stop_lat":39.939697,"stop_lon":-82.990695,"zone_id":" ","stop_url":" ","location_t":" ","parent_sta":" ","wheelchair":0}},{"type":"Feature","id":184,"geometry":{"type":"Point","coordinates":[-82.990868,39.937638]},"properties":{"FID":184,"stop_id":"JAEGATS","stop_code":2106,"stop_name":"JAEGER ST & E GATES ST","stop_desc":" ","stop_lat":39.937638,"stop_lon":-82.990868,"zone_id":" ","stop_url":" ","location_t":" ","parent_sta":" ","wheelchair":0}},{"type":"Feature","id":185,"geometry":{"type":"Point","coordinates":[-82.988484,39.936452]},"properties":{"FID":185,"stop_id":"HANBRUE","stop_code":2107,"stop_name":"HANFORD ST & BRUCK ST","stop_desc":" ","stop_lat":39.936452,"stop_lon":-82.988484,"zone_id":" ","stop_url":" ","location_t":" ","parent_sta":" ","wheelchair":0}},{"type":"Feature","id":186,"geometry":{"type":"Point","coordinates":[-82.983818,39.935431]},"properties":{"FID":186,"stop_id":"FREPARE","stop_code":2109,"stop_name":"FREBIS AVE & PARSONS AVE","stop_desc":" ","stop_lat":39.935431,"stop_lon":-82.983818,"zone_id":" ","stop_url":" ","location_t":" ","parent_sta":" ","wheelchair":0}},{"type":"Feature","id":187,"geometry":{"type":"Point","coordinates":[-82.981334,39.935337]},"properties":{"FID":187,"stop_id":"FREANNE","stop_code":2110,"stop_name":"FREBIS AVE & ANN ST","stop_desc":" ","stop_lat":39.935337,"stop_lon":-82.981334,"zone_id":" ","stop_url":" ","location_t":" ","parent_sta":" ","wheelchair":0}},{"type":"Feature","id":188,"geometry":{"type":"Point","coordinates":[-82.978535,39.935206]},"properties":{"FID":188,"stop_id":"FRE18TE","stop_code":2111,"stop_name":"FREBIS AVE & S 18TH ST","stop_desc":" ","stop_lat":39.935206,"stop_lon":-82.978535,"zone_id":" ","stop_url":" ","location_t":" ","parent_sta":" ","wheelchair":0}},{"type":"Feature","id":189,"geometry":{"type":"Point","coordinates":[-82.965231,39.934572]},"properties":{"FID":189,"stop_id":"FRESTUE","stop_code":2116,"stop_name":"FREBIS AVE & STUDER AVE","stop_desc":" ","stop_lat":39.934572,"stop_lon":-82.965231,"zone_id":" ","stop_url":" ","location_t":" ","parent_sta":" ","wheelchair":0}},{"type":"Feature","id":190,"geometry":{"type":"Point","coordinates":[-82.964624,39.932993]},"properties":{"FID":190,"stop_id":"LOCSHES","stop_code":2117,"stop_name":"LOCKBOURNE RD & SHELDON AVE","stop_desc":" ","stop_lat":39.932993,"stop_lon":-82.964624,"zone_id":" ","stop_url":" ","location_t":" ","parent_sta":" ","wheelchair":0}},{"type":"Feature","id":191,"geometry":{"type":"Point","coordinates":[-82.96483,39.930504]},"properties":{"FID":191,"stop_id":"LOCMARS","stop_code":2118,"stop_name":"LOCKBOURNE RD & E MARKISON AVE","stop_desc":" ","stop_lat":39.930504,"stop_lon":-82.96483,"zone_id":" ","stop_url":" ","location_t":" ","parent_sta":" ","wheelchair":0}},{"type":"Feature","id":192,"geometry":{"type":"Point","coordinates":[-82.96508,39.92734]},"properties":{"FID":192,"stop_id":"LOCSMIS","stop_code":2119,"stop_name":"LOCKBOURNE RD & SMITH RD","stop_desc":" ","stop_lat":39.92734,"stop_lon":-82.96508,"zone_id":" ","stop_url":" ","location_t":" ","parent_sta":" ","wheelchair":0}},{"type":"Feature","id":193,"geometry":{"type":"Point","coordinates":[-82.965354,39.924354]},"properties":{"FID":193,"stop_id":"LOCREES","stop_code":2120,"stop_name":"LOCKBOURNE RD & REEB AVE","stop_desc":" ","stop_lat":39.924354,"stop_lon":-82.965354,"zone_id":" ","stop_url":" ","location_t":" ","parent_sta":" ","wheelchair":0}},{"type":"Feature","id":194,"geometry":{"type":"Point","coordinates":[-83.04082,39.986967]},"properties":{"FID":194,"stop_id":"NORTHONW","stop_code":1333,"stop_name":"NORTHWEST BLVD & THORNWOOD PL","stop_desc":" ","stop_lat":39.986967,"stop_lon":-83.04082,"zone_id":" ","stop_url":" ","location_t":" ","parent_sta":" ","wheelchair":0}},{"type":"Feature","id":195,"geometry":{"type":"Point","coordinates":[-82.965949,39.916746]},"properties":{"FID":195,"stop_id":"LOC234S","stop_code":2123,"stop_name":"2341 LOCKBOURNE RD","stop_desc":" ","stop_lat":39.916746,"stop_lon":-82.965949,"zone_id":" ","stop_url":" ","location_t":" ","parent_sta":" ","wheelchair":0}},{"type":"Feature","id":196,"geometry":{"type":"Point","coordinates":[-82.965531,39.912572]},"properties":{"FID":196,"stop_id":"KOEACRE","stop_code":2124,"stop_name":"1130 KOEBEL RD","stop_desc":" ","stop_lat":39.912572,"stop_lon":-82.965531,"zone_id":" ","stop_url":" ","location_t":" ","parent_sta":" ","wheelchair":0}},{"type":"Feature","id":197,"geometry":{"type":"Point","coordinates":[-83.040689,39.988911]},"properties":{"FID":197,"stop_id":"NOR5THN","stop_code":1334,"stop_name":"NORTHWEST BLVD & W 5TH AVE","stop_desc":" ","stop_lat":39.988911,"stop_lon":-83.040689,"zone_id":" ","stop_url":" ","location_t":" ","parent_sta":" ","wheelchair":0}},{"type":"Feature","id":198,"geometry":{"type":"Point","coordinates":[-82.960481,39.912313]},"properties":{"FID":198,"stop_id":"KOEEDSLE","stop_code":2126,"stop_name":"KOEBEL & EDSEL AVE","stop_desc":"KOEBEL RD & EDSEL AVE","stop_lat":39.912313,"stop_lon":-82.960481,"zone_id":" ","stop_url":" ","location_t":" ","parent_sta":" ","wheelchair":0}},{"type":"Feature","id":199,"geometry":{"type":"Point","coordinates":[-83.017269,40.103119]},"properties":{"FID":199,"stop_id":"HIGHALS","stop_code":1336,"stop_name":"N HIGH ST & HALLIGAN AVE","stop_desc":" ","stop_lat":40.103119,"stop_lon":-83.017269,"zone_id":" ","stop_url":" ","location_t":" ","parent_sta":" ","wheelchair":0}},{"type":"Feature","id":200,"geometry":{"type":"Point","coordinates":[-82.957117,39.912145]},"properties":{"FID":200,"stop_id":"KOEFAIE","stop_code":2127,"stop_name":"KOEBEL RD & FAIRWOOD AVE","stop_desc":" ","stop_lat":39.912145,"stop_lon":-82.957117,"zone_id":" ","stop_url":" ","location_t":" ","parent_sta":" ","wheelchair":0}},{"type":"Feature","id":201,"geometry":{"type":"Point","coordinates":[-83.064345,39.989877]},"properties":{"FID":201,"stop_id":"RIV5THS","stop_code":1338,"stop_name":"RIVERSIDE DR & W 5TH AVE","stop_desc":" ","stop_lat":39.989877,"stop_lon":-83.064345,"zone_id":" ","stop_url":" ","location_t":" ","parent_sta":" ","wheelchair":0}},{"type":"Feature","id":202,"geometry":{"type":"Point","coordinates":[-82.957155,39.908924]},"properties":{"FID":202,"stop_id":"FAIFABS","stop_code":2128,"stop_name":"FAIRWOOD AVE & FABER AVE","stop_desc":" ","stop_lat":39.908924,"stop_lon":-82.957155,"zone_id":" ","stop_url":" ","location_t":" ","parent_sta":" ","wheelchair":0}},{"type":"Feature","id":203,"geometry":{"type":"Point","coordinates":[-83.052666,39.998608]},"properties":{"FID":203,"stop_id":"NORGLENW","stop_code":1341,"stop_name":"NORTHWEST BLVD & GLENN AVE","stop_desc":" ","stop_lat":39.998608,"stop_lon":-83.052666,"zone_id":" ","stop_url":" ","location_t":" ","parent_sta":" ","wheelchair":0}},{"type":"Feature","id":204,"geometry":{"type":"Point","coordinates":[-83.054031,39.999801]},"properties":{"FID":204,"stop_id":"NORBARNW","stop_code":1342,"stop_name":"NORTHWEST BLVD & BARRINGTON RD","stop_desc":" ","stop_lat":39.999801,"stop_lon":-83.054031,"zone_id":" ","stop_url":" ","location_t":" ","parent_sta":" ","wheelchair":0}},{"type":"Feature","id":205,"geometry":{"type":"Point","coordinates":[-82.957444,39.904988]},"properties":{"FID":205,"stop_id":"FAIWATS","stop_code":2130,"stop_name":"FAIRWOOD AVE & WATKINS RD","stop_desc":" ","stop_lat":39.904988,"stop_lon":-82.957444,"zone_id":" ","stop_url":" ","location_t":" ","parent_sta":" ","wheelchair":0}},{"type":"Feature","id":206,"geometry":{"type":"Point","coordinates":[-83.055291,40.001613]},"properties":{"FID":206,"stop_id":"NORGUINW","stop_code":1343,"stop_name":"NORTHWEST BLVD & GUILFORD RD","stop_desc":" ","stop_lat":40.001613,"stop_lon":-83.055291,"zone_id":" ","stop_url":" ","location_t":" ","parent_sta":" ","wheelchair":0}},{"type":"Feature","id":207,"geometry":{"type":"Point","coordinates":[-83.03334,40.003191]},"properties":{"FID":207,"stop_id":"WOOKENE","stop_code":2132,"stop_name":"WOODY HAYES DR & KENNY RD","stop_desc":" ","stop_lat":40.003191,"stop_lon":-83.03334,"zone_id":" ","stop_url":" ","location_t":" ","parent_sta":" ","wheelchair":0}},{"type":"Feature","id":208,"geometry":{"type":"Point","coordinates":[-83.057064,40.003121]},"properties":{"FID":208,"stop_id":"NORBRANW","stop_code":1344,"stop_name":"NORTHWEST BLVD & BRANDON RD","stop_desc":" ","stop_lat":40.003121,"stop_lon":-83.057064,"zone_id":" ","stop_url":" ","location_t":" ","parent_sta":" ","wheelchair":0}},{"type":"Feature","id":209,"geometry":{"type":"Point","coordinates":[-82.992364,39.956876]},"properties":{"FID":209,"stop_id":"MAI5THE","stop_code":1347,"stop_name":"E MAIN ST & S 5TH ST","stop_desc":" ","stop_lat":39.956876,"stop_lon":-82.992364,"zone_id":" ","stop_url":" ","location_t":" ","parent_sta":" ","wheelchair":0}},{"type":"Feature","id":210,"geometry":{"type":"Point","coordinates":[-82.863631,40.013306]},"properties":{"FID":210,"stop_id":"ROCLANW2","stop_code":1351,"stop_name":"ROCKY FORK BLVD & LANDOVER PL","stop_desc":" ","stop_lat":40.013306,"stop_lon":-82.863631,"zone_id":" ","stop_url":" ","location_t":" ","parent_sta":" ","wheelchair":0}},{"type":"Feature","id":211,"geometry":{"type":"Point","coordinates":[-82.94266,39.982398]},"properties":{"FID":211,"stop_id":"NELAVAN","stop_code":1358,"stop_name":"N NELSON RD & AVALON PL","stop_desc":" ","stop_lat":39.982398,"stop_lon":-82.94266,"zone_id":" ","stop_url":" ","location_t":" ","parent_sta":" ","wheelchair":0}},{"type":"Feature","id":212,"geometry":{"type":"Point","coordinates":[-82.941564,39.984798]},"properties":{"FID":212,"stop_id":"NELOPPN","stop_code":1360,"stop_name":"N NELSON RD & MARGARET AVE","stop_desc":" ","stop_lat":39.984798,"stop_lon":-82.941564,"zone_id":" ","stop_url":" ","location_t":" ","parent_sta":" ","wheelchair":0}},{"type":"Feature","id":213,"geometry":{"type":"Point","coordinates":[-82.956311,40.046914]},"properties":{"FID":213,"stop_id":"CLEORMS","stop_code":1836,"stop_name":"CLEVELAND AVE & ORMOND AVE","stop_desc":" ","stop_lat":40.046914,"stop_lon":-82.956311,"zone_id":" ","stop_url":" ","location_t":" ","parent_sta":" ","wheelchair":0}},{"type":"Feature","id":214,"geometry":{"type":"Point","coordinates":[-82.94307,39.981882]},"properties":{"FID":214,"stop_id":"NELAVAS","stop_code":1363,"stop_name":"N NELSON RD & AVALON PL","stop_desc":" ","stop_lat":39.981882,"stop_lon":-82.94307,"zone_id":" ","stop_url":" ","location_t":" ","parent_sta":" ","wheelchair":0}},{"type":"Feature","id":215,"geometry":{"type":"Point","coordinates":[-83.078627,40.01967]},"properties":{"FID":215,"stop_id":"ZOLLEEE","stop_code":1368,"stop_name":"ZOLLINGER RD & LEEDS RD","stop_desc":" ","stop_lat":40.01967,"stop_lon":-83.078627,"zone_id":" ","stop_url":" ","location_t":" ","parent_sta":" ","wheelchair":0}},{"type":"Feature","id":216,"geometry":{"type":"Point","coordinates":[-83.075886,40.019526]},"properties":{"FID":216,"stop_id":"ZOLASBE","stop_code":1369,"stop_name":"ZOLLINGER RD & ASBURY DR","stop_desc":" ","stop_lat":40.019526,"stop_lon":-83.075886,"zone_id":" ","stop_url":" ","location_t":" ","parent_sta":" ","wheelchair":0}},{"type":"Feature","id":217,"geometry":{"type":"Point","coordinates":[-83.072431,40.019341]},"properties":{"FID":217,"stop_id":"ZOLMOUE","stop_code":1370,"stop_name":"ZOLLINGER RD & MOUNTVIEW RD","stop_desc":" ","stop_lat":40.019341,"stop_lon":-83.072431,"zone_id":" ","stop_url":" ","location_t":" ","parent_sta":" ","wheelchair":0}},{"type":"Feature","id":218,"geometry":{"type":"Point","coordinates":[-83.0698,40.018841]},"properties":{"FID":218,"stop_id":"REDZOLS","stop_code":1371,"stop_name":"REDDING RD & ZOLLINGER RD","stop_desc":" ","stop_lat":40.018841,"stop_lon":-83.0698,"zone_id":" ","stop_url":" ","location_t":" ","parent_sta":" ","wheelchair":0}},{"type":"Feature","id":219,"geometry":{"type":"Point","coordinates":[-83.069969,40.016134]},"properties":{"FID":219,"stop_id":"REDRIDS","stop_code":1373,"stop_name":"REDDING RD & RIDGEVIEW RD","stop_desc":" ","stop_lat":40.016134,"stop_lon":-83.069969,"zone_id":" ","stop_url":" ","location_t":" ","parent_sta":" ","wheelchair":0}},{"type":"Feature","id":220,"geometry":{"type":"Point","coordinates":[-83.0701,40.01409]},"properties":{"FID":220,"stop_id":"REDEDIS","stop_code":1374,"stop_name":"REDDING RD & EDINGTON RD","stop_desc":" ","stop_lat":40.01409,"stop_lon":-83.0701,"zone_id":" ","stop_url":" ","location_t":" ","parent_sta":" ","wheelchair":0}},{"type":"Feature","id":221,"geometry":{"type":"Point","coordinates":[-83.017529,40.098805]},"properties":{"FID":221,"stop_id":"HIGLARS","stop_code":1379,"stop_name":"N HIGH ST & LARRIMER AVE","stop_desc":" ","stop_lat":40.098805,"stop_lon":-83.017529,"zone_id":" ","stop_url":" ","location_t":" ","parent_sta":" ","wheelchair":0}},{"type":"Feature","id":222,"geometry":{"type":"Point","coordinates":[-82.950104,39.988181]},"properties":{"FID":222,"stop_id":"BRELEON","stop_code":1842,"stop_name":"BRENTNELL AVE & LEONARD AVE","stop_desc":" ","stop_lat":39.988181,"stop_lon":-82.950104,"zone_id":" ","stop_url":" ","location_t":" ","parent_sta":" ","wheelchair":0}},{"type":"Feature","id":223,"geometry":{"type":"Point","coordinates":[-83.065637,39.989715]},"properties":{"FID":223,"stop_id":"5TH220W","stop_code":1382,"stop_name":"2200 W 5TH AVE","stop_desc":" ","stop_lat":39.989715,"stop_lon":-83.065637,"zone_id":" ","stop_url":" ","location_t":" ","parent_sta":" ","wheelchair":0}},{"type":"Feature","id":224,"geometry":{"type":"Point","coordinates":[-82.949824,39.991938]},"properties":{"FID":224,"stop_id":"BREWOON","stop_code":1843,"stop_name":"BRENTNELL AVE & WOODWARD AVE","stop_desc":" ","stop_lat":39.991938,"stop_lon":-82.949824,"zone_id":" ","stop_url":" ","location_t":" ","parent_sta":" ","wheelchair":0}},{"type":"Feature","id":225,"geometry":{"type":"Point","coordinates":[-83.065361,39.989582]},"properties":{"FID":225,"stop_id":"5TH2200E","stop_code":1384,"stop_name":"2200 W 5TH AVE","stop_desc":" ","stop_lat":39.989582,"stop_lon":-83.065361,"zone_id":" ","stop_url":" ","location_t":" ","parent_sta":" ","wheelchair":0}},{"type":"Feature","id":226,"geometry":{"type":"Point","coordinates":[-82.99657,39.941826]},"properties":{"FID":226,"stop_id":"HIGSTEN","stop_code":1385,"stop_name":"S HIGH ST & STEWART AVE","stop_desc":" ","stop_lat":39.941826,"stop_lon":-82.99657,"zone_id":" ","stop_url":" ","location_t":" ","parent_sta":" ","wheelchair":0}},{"type":"Feature","id":227,"geometry":{"type":"Point","coordinates":[-82.949665,39.993947]},"properties":{"FID":227,"stop_id":"BRE1257N","stop_code":1844,"stop_name":"1257 BRENTNELL AVE","stop_desc":" ","stop_lat":39.993947,"stop_lon":-82.949665,"zone_id":" ","stop_url":" ","location_t":" ","parent_sta":" ","wheelchair":0}},{"type":"Feature","id":228,"geometry":{"type":"Point","coordinates":[-83.038561,39.984792]},"properties":{"FID":228,"stop_id":"3RDNWBE","stop_code":1395,"stop_name":"W 3RD AVE & NORTHWEST BLVD","stop_desc":" ","stop_lat":39.984792,"stop_lon":-83.038561,"zone_id":" ","stop_url":" ","location_t":" ","parent_sta":" ","wheelchair":0}},{"type":"Feature","id":229,"geometry":{"type":"Point","coordinates":[-82.949456,39.996483]},"properties":{"FID":229,"stop_id":"BRELISN","stop_code":1845,"stop_name":"BRENTNELL AVE & LISA DR","stop_desc":" ","stop_lat":39.996483,"stop_lon":-82.949456,"zone_id":" ","stop_url":" ","location_t":" ","parent_sta":" ","wheelchair":0}},{"type":"Feature","id":230,"geometry":{"type":"Point","coordinates":[-83.034702,39.984633]},"properties":{"FID":230,"stop_id":"3RDOXLE","stop_code":1397,"stop_name":"W 3RD AVE & OXLEY RD","stop_desc":" ","stop_lat":39.984633,"stop_lon":-83.034702,"zone_id":" ","stop_url":" ","location_t":" ","parent_sta":" ","wheelchair":0}},{"type":"Feature","id":231,"geometry":{"type":"Point","coordinates":[-82.949173,39.999967]},"properties":{"FID":231,"stop_id":"BREHOLN","stop_code":1847,"stop_name":"BRENTNELL AVE & HOLT AVE","stop_desc":" ","stop_lat":39.999967,"stop_lon":-82.949173,"zone_id":" ","stop_url":" ","location_t":" ","parent_sta":" ","wheelchair":0}},{"type":"Feature","id":232,"geometry":{"type":"Point","coordinates":[-83.029077,39.984357]},"properties":{"FID":232,"stop_id":"3RDEDGE","stop_code":1399,"stop_name":"W 3RD AVE & EDGEHILL RD","stop_desc":" ","stop_lat":39.984357,"stop_lon":-83.029077,"zone_id":" ","stop_url":" ","location_t":" ","parent_sta":" ","wheelchair":0}},{"type":"Feature","id":233,"geometry":{"type":"Point","coordinates":[-82.948681,40.004023]},"properties":{"FID":233,"stop_id":"BREARGN","stop_code":1849,"stop_name":"BRENTNELL AVE & ARGYLE DR","stop_desc":" ","stop_lat":40.004023,"stop_lon":-82.948681,"zone_id":" ","stop_url":" ","location_t":" ","parent_sta":" ","wheelchair":0}},{"type":"Feature","id":234,"geometry":{"type":"Point","coordinates":[-83.018729,39.983906]},"properties":{"FID":234,"stop_id":"3RDPERE","stop_code":1400,"stop_name":"W 3RD AVE & PERRY ST","stop_desc":" ","stop_lat":39.983906,"stop_lon":-83.018729,"zone_id":" ","stop_url":" ","location_t":" ","parent_sta":" ","wheelchair":0}},{"type":"Feature","id":235,"geometry":{"type":"Point","coordinates":[-82.948205,40.006189]},"properties":{"FID":235,"stop_id":"BREMIDN","stop_code":1850,"stop_name":"BRENTNELL AVE & MIDDLEHURST DR","stop_desc":" ","stop_lat":40.006189,"stop_lon":-82.948205,"zone_id":" ","stop_url":" ","location_t":" ","parent_sta":" ","wheelchair":0}},{"type":"Feature","id":236,"geometry":{"type":"Point","coordinates":[-83.015952,39.983805]},"properties":{"FID":236,"stop_id":"3RDPENE","stop_code":1401,"stop_name":"W 3RD AVE & PENNSYLVANIA AVE","stop_desc":" ","stop_lat":39.983805,"stop_lon":-83.015952,"zone_id":" ","stop_url":" ","location_t":" ","parent_sta":" ","wheelchair":0}},{"type":"Feature","id":237,"geometry":{"type":"Point","coordinates":[-83.015621,39.982386]},"properties":{"FID":237,"stop_id":"PEN2NDS","stop_code":1403,"stop_name":"PENNSYLVANIA AVE & W 2ND AVE","stop_desc":" ","stop_lat":39.982386,"stop_lon":-83.015621,"zone_id":" ","stop_url":" ","location_t":" ","parent_sta":" ","wheelchair":0}},{"type":"Feature","id":238,"geometry":{"type":"Point","coordinates":[-82.947618,40.010101]},"properties":{"FID":238,"stop_id":"DELBREE","stop_code":1852,"stop_name":"DELAVAN DR & BRENTNELL AVE","stop_desc":" ","stop_lat":40.010101,"stop_lon":-82.947618,"zone_id":" ","stop_url":" ","location_t":" ","parent_sta":" ","wheelchair":0}},{"type":"Feature","id":239,"geometry":{"type":"Point","coordinates":[-83.014401,39.980149]},"properties":{"FID":239,"stop_id":"HAR1STS","stop_code":1405,"stop_name":"HARRISON AVE & W 1ST AVE","stop_desc":" ","stop_lat":39.980149,"stop_lon":-83.014401,"zone_id":" ","stop_url":" ","location_t":" ","parent_sta":" ","wheelchair":0}},{"type":"Feature","id":240,"geometry":{"type":"Point","coordinates":[-83.014555,39.977733]},"properties":{"FID":240,"stop_id":"HARBUTS","stop_code":1406,"stop_name":"HARRISON AVE & BUTTLES AVE","stop_desc":" ","stop_lat":39.977733,"stop_lon":-83.014555,"zone_id":" ","stop_url":" ","location_t":" ","parent_sta":" ","wheelchair":0}},{"type":"Feature","id":241,"geometry":{"type":"Point","coordinates":[-83.011463,39.977415]},"properties":{"FID":241,"stop_id":"BUTNEIEN","stop_code":1407,"stop_name":"BUTTLES AVE & NEIL AVE","stop_desc":" ","stop_lat":39.977415,"stop_lon":-83.011463,"zone_id":" ","stop_url":" ","location_t":" ","parent_sta":" ","wheelchair":0}},{"type":"Feature","id":242,"geometry":{"type":"Point","coordinates":[-83.010961,39.976044]},"properties":{"FID":242,"stop_id":"NEICOLS","stop_code":1408,"stop_name":"NEIL AVE & COLLINS AVE","stop_desc":" ","stop_lat":39.976044,"stop_lon":-83.010961,"zone_id":" ","stop_url":" ","location_t":" ","parent_sta":" ","wheelchair":0}},{"type":"Feature","id":243,"geometry":{"type":"Point","coordinates":[-83.010669,39.974442]},"properties":{"FID":243,"stop_id":"NEIGOOS","stop_code":1409,"stop_name":"NEIL AVE & W GOODALE ST","stop_desc":" ","stop_lat":39.974442,"stop_lon":-83.010669,"zone_id":" ","stop_url":" ","location_t":" ","parent_sta":" ","wheelchair":0}},{"type":"Feature","id":244,"geometry":{"type":"Point","coordinates":[-83.009793,39.967669]},"properties":{"FID":244,"stop_id":"NEINATS","stop_code":1411,"stop_name":"NEIL AVE & NATIONWIDE BLVD","stop_desc":" ","stop_lat":39.967669,"stop_lon":-83.009793,"zone_id":" ","stop_url":" ","location_t":" ","parent_sta":" ","wheelchair":0}},{"type":"Feature","id":245,"geometry":{"type":"Point","coordinates":[-82.998052,39.979403]},"properties":{"FID":245,"stop_id":"4TH803N","stop_code":1416,"stop_name":"803 N 4TH ST","stop_desc":" ","stop_lat":39.979403,"stop_lon":-82.998052,"zone_id":" ","stop_url":" ","location_t":" ","parent_sta":" ","wheelchair":0}},{"type":"Feature","id":246,"geometry":{"type":"Point","coordinates":[-82.930662,39.989626]},"properties":{"FID":246,"stop_id":"CAS10TS","stop_code":1853,"stop_name":"N CASSADY AVE & E 10TH AVE","stop_desc":" ","stop_lat":39.989626,"stop_lon":-82.930662,"zone_id":" ","stop_url":" ","location_t":" ","parent_sta":" ","wheelchair":0}},{"type":"Feature","id":247,"geometry":{"type":"Point","coordinates":[-82.998669,39.982598]},"properties":{"FID":247,"stop_id":"4TH2NDN","stop_code":1418,"stop_name":"N 4TH ST & E 2ND AVE","stop_desc":" ","stop_lat":39.982598,"stop_lon":-82.998669,"zone_id":" ","stop_url":" ","location_t":" ","parent_sta":" ","wheelchair":0}},{"type":"Feature","id":248,"geometry":{"type":"Point","coordinates":[-82.945377,40.009437]},"properties":{"FID":248,"stop_id":"DEL236E","stop_code":1854,"stop_name":"2367 DELAVAN DR","stop_desc":" ","stop_lat":40.009437,"stop_lon":-82.945377,"zone_id":" ","stop_url":" ","location_t":" ","parent_sta":" ","wheelchair":0}},{"type":"Feature","id":249,"geometry":{"type":"Point","coordinates":[-82.999031,39.984476]},"properties":{"FID":249,"stop_id":"4THDETN","stop_code":1419,"stop_name":"N 4TH ST & DETROIT AVE","stop_desc":" ","stop_lat":39.984476,"stop_lon":-82.999031,"zone_id":" ","stop_url":" ","location_t":" ","parent_sta":" ","wheelchair":0}},{"type":"Feature","id":250,"geometry":{"type":"Point","coordinates":[-82.999474,39.987295]},"properties":{"FID":250,"stop_id":"4TH5THN","stop_code":1420,"stop_name":"N 4TH ST & E 5TH AVE","stop_desc":" ","stop_lat":39.987295,"stop_lon":-82.999474,"zone_id":" ","stop_url":" ","location_t":" ","parent_sta":" ","wheelchair":0}},{"type":"Feature","id":251,"geometry":{"type":"Point","coordinates":[-82.941742,40.010446]},"properties":{"FID":251,"stop_id":"BARBRON","stop_code":1857,"stop_name":"BAR HARBOR RD & BROCTON RD","stop_desc":" ","stop_lat":40.010446,"stop_lon":-82.941742,"zone_id":" ","stop_url":" ","location_t":" ","parent_sta":" ","wheelchair":0}},{"type":"Feature","id":252,"geometry":{"type":"Point","coordinates":[-82.999114,39.993087]},"properties":{"FID":252,"stop_id":"4TH9THN","stop_code":1423,"stop_name":"N 4TH ST & E 9TH AVE","stop_desc":" ","stop_lat":39.993087,"stop_lon":-82.999114,"zone_id":" ","stop_url":" ","location_t":" ","parent_sta":" ","wheelchair":0}},{"type":"Feature","id":253,"geometry":{"type":"Point","coordinates":[-82.947678,40.012122]},"properties":{"FID":253,"stop_id":"BREDAWN","stop_code":1859,"stop_name":"BRENTNELL AVE & DAWNLIGHT AVE","stop_desc":" ","stop_lat":40.012122,"stop_lon":-82.947678,"zone_id":" ","stop_url":" ","location_t":" ","parent_sta":" ","wheelchair":0}},{"type":"Feature","id":254,"geometry":{"type":"Point","coordinates":[-82.998979,39.995224]},"properties":{"FID":254,"stop_id":"4THCHIN","stop_code":1425,"stop_name":"N 4TH ST & CHITTENDEN AVE","stop_desc":" ","stop_lat":39.995224,"stop_lon":-82.998979,"zone_id":" ","stop_url":" ","location_t":" ","parent_sta":" ","wheelchair":0}},{"type":"Feature","id":255,"geometry":{"type":"Point","coordinates":[-82.998671,39.999446]},"properties":{"FID":255,"stop_id":"4TH15TN","stop_code":1427,"stop_name":"N 4TH ST & E 15TH AVE","stop_desc":" ","stop_lat":39.999446,"stop_lon":-82.998671,"zone_id":" ","stop_url":" ","location_t":" ","parent_sta":" ","wheelchair":0}},{"type":"Feature","id":256,"geometry":{"type":"Point","coordinates":[-82.947925,40.014678]},"properties":{"FID":256,"stop_id":"BREMARN","stop_code":1860,"stop_name":"BRENTNELL AVE & MARCIA DR","stop_desc":" ","stop_lat":40.014678,"stop_lon":-82.947925,"zone_id":" ","stop_url":" ","location_t":" ","parent_sta":" ","wheelchair":0}},{"type":"Feature","id":257,"geometry":{"type":"Point","coordinates":[-82.998477,40.002163]},"properties":{"FID":257,"stop_id":"4TH18TN","stop_code":1428,"stop_name":"N 4TH ST & E 18TH AVE","stop_desc":" ","stop_lat":40.002163,"stop_lon":-82.998477,"zone_id":" ","stop_url":" ","location_t":" ","parent_sta":" ","wheelchair":0}},{"type":"Feature","id":258,"geometry":{"type":"Point","coordinates":[-82.998235,40.005627]},"properties":{"FID":258,"stop_id":"4THLANN","stop_code":1430,"stop_name":"N 4TH ST & E LANE AVE","stop_desc":" ","stop_lat":40.005627,"stop_lon":-82.998235,"zone_id":" ","stop_url":" ","location_t":" ","parent_sta":" ","wheelchair":0}},{"type":"Feature","id":259,"geometry":{"type":"Point","coordinates":[-82.99804,40.008527]},"properties":{"FID":259,"stop_id":"4THALDN","stop_code":1432,"stop_name":"4TH ST & ALDEN AVE","stop_desc":"N 4TH ST & ALDEN AVE","stop_lat":40.008527,"stop_lon":-82.99804,"zone_id":" ","stop_url":" ","location_t":" ","parent_sta":" ","wheelchair":0}},{"type":"Feature","id":260,"geometry":{"type":"Point","coordinates":[-82.948213,40.016387]},"properties":{"FID":260,"stop_id":"MYRBREW","stop_code":1861,"stop_name":"MYRTLE AVE & BRENTNELL AVE","stop_desc":" ","stop_lat":40.016387,"stop_lon":-82.948213,"zone_id":" ","stop_url":" ","location_t":" ","parent_sta":" ","wheelchair":0}},{"type":"Feature","id":261,"geometry":{"type":"Point","coordinates":[-82.997832,40.011384]},"properties":{"FID":261,"stop_id":"4THMAYN","stop_code":1433,"stop_name":"N 4TH ST & MAYNARD AVE","stop_desc":"N 4TH ST & CHILCOTE AVE","stop_lat":40.011384,"stop_lon":-82.997832,"zone_id":" ","stop_url":" ","location_t":" ","parent_sta":" ","wheelchair":0}},{"type":"Feature","id":262,"geometry":{"type":"Point","coordinates":[-82.997682,40.013338]},"properties":{"FID":262,"stop_id":"4THCLIN","stop_code":1434,"stop_name":"N 4TH ST & CLINTON ST","stop_desc":" ","stop_lat":40.013338,"stop_lon":-82.997682,"zone_id":" ","stop_url":" ","location_t":" ","parent_sta":" ","wheelchair":0}},{"type":"Feature","id":263,"geometry":{"type":"Point","coordinates":[-82.927094,40.026558]},"properties":{"FID":263,"stop_id":"CHEMARW","stop_code":1866,"stop_name":"CHELFORD DR & MARVIEW RD","stop_desc":" ","stop_lat":40.026558,"stop_lon":-82.927094,"zone_id":" ","stop_url":" ","location_t":" ","parent_sta":" ","wheelchair":0}},{"type":"Feature","id":264,"geometry":{"type":"Point","coordinates":[-83.000464,40.015189]},"properties":{"FID":264,"stop_id":"HUDSUMW","stop_code":1436,"stop_name":"E HUDSON ST & SUMMIT ST","stop_desc":" ","stop_lat":40.015189,"stop_lon":-83.000464,"zone_id":" ","stop_url":" ","location_t":" ","parent_sta":" ","wheelchair":0}},{"type":"Feature","id":265,"geometry":{"type":"Point","coordinates":[-82.959123,40.013375]},"properties":{"FID":265,"stop_id":"HUDDELW","stop_code":1869,"stop_name":"E HUDSON ST & DELBERT RD","stop_desc":" ","stop_lat":40.013375,"stop_lon":-82.959123,"zone_id":" ","stop_url":" ","location_t":" ","parent_sta":" ","wheelchair":0}},{"type":"Feature","id":266,"geometry":{"type":"Point","coordinates":[-83.001975,40.017252]},"properties":{"FID":266,"stop_id":"INDARCN","stop_code":1438,"stop_name":"INDIANOLA AVE & E ARCADIA AVE","stop_desc":" ","stop_lat":40.017252,"stop_lon":-83.001975,"zone_id":" ","stop_url":" ","location_t":" ","parent_sta":" ","wheelchair":0}},{"type":"Feature","id":267,"geometry":{"type":"Point","coordinates":[-83.001789,40.019862]},"properties":{"FID":267,"stop_id":"INDPARN","stop_code":1439,"stop_name":"INDIANOLA AVE & PARKVIEW DR","stop_desc":" ","stop_lat":40.019862,"stop_lon":-83.001789,"zone_id":" ","stop_url":" ","location_t":" ","parent_sta":" ","wheelchair":0}},{"type":"Feature","id":268,"geometry":{"type":"Point","coordinates":[-82.926405,40.026442]},"properties":{"FID":268,"stop_id":"CHEMARE","stop_code":1871,"stop_name":"CHELFORD DR & MARVIEW RD","stop_desc":" ","stop_lat":40.026442,"stop_lon":-82.926405,"zone_id":" ","stop_url":" ","location_t":" ","parent_sta":" ","wheelchair":0}},{"type":"Feature","id":269,"geometry":{"type":"Point","coordinates":[-83.001627,40.022615]},"properties":{"FID":269,"stop_id":"INDTULN","stop_code":1441,"stop_name":"INDIANOLA AVE & E TULANE RD","stop_desc":" ","stop_lat":40.022615,"stop_lon":-83.001627,"zone_id":" ","stop_url":" ","location_t":" ","parent_sta":" ","wheelchair":0}},{"type":"Feature","id":270,"geometry":{"type":"Point","coordinates":[-82.810941,39.955191]},"properties":{"FID":270,"stop_id":"MAIBRIW","stop_code":1875,"stop_name":"E MAIN ST & BRIARCLIFF RD","stop_desc":" ","stop_lat":39.955191,"stop_lon":-82.810941,"zone_id":" ","stop_url":" ","location_t":" ","parent_sta":" ","wheelchair":0}},{"type":"Feature","id":271,"geometry":{"type":"Point","coordinates":[-83.001531,40.024278]},"properties":{"FID":271,"stop_id":"INDWEBN","stop_code":1442,"stop_name":"INDIANOLA AVE & E WEBER RD","stop_desc":" ","stop_lat":40.024278,"stop_lon":-83.001531,"zone_id":" ","stop_url":" ","location_t":" ","parent_sta":" ","wheelchair":0}},{"type":"Feature","id":272,"geometry":{"type":"Point","coordinates":[-82.841426,39.943153]},"properties":{"FID":272,"stop_id":"LIVQUAW","stop_code":1879,"stop_name":"E LIVINGSTON AVE & QUARRY RIDGE DR","stop_desc":" ","stop_lat":39.943153,"stop_lon":-82.841426,"zone_id":" ","stop_url":" ","location_t":" ","parent_sta":" ","wheelchair":0}},{"type":"Feature","id":273,"geometry":{"type":"Point","coordinates":[-82.963207,39.899626]},"properties":{"FID":273,"stop_id":"GROCLASE","stop_code":1880,"stop_name":"GROVEPORT RD & CLARFIELD AVE","stop_desc":" ","stop_lat":39.899626,"stop_lon":-82.963207,"zone_id":" ","stop_url":" ","location_t":" ","parent_sta":" ","wheelchair":0}},{"type":"Feature","id":274,"geometry":{"type":"Point","coordinates":[-82.950877,39.879707]},"properties":{"FID":274,"stop_id":"GROCHISE","stop_code":1881,"stop_name":"GROVEPORT RD & CHILLICOTHE ST","stop_desc":" ","stop_lat":39.879707,"stop_lon":-82.950877,"zone_id":" ","stop_url":" ","location_t":" ","parent_sta":" ","wheelchair":0}},{"type":"Feature","id":275,"geometry":{"type":"Point","coordinates":[-83.001383,40.02605]},"properties":{"FID":275,"stop_id":"INDMILN","stop_code":1443,"stop_name":"INDIANOLA AVE & MILFORD AVE","stop_desc":" ","stop_lat":40.02605,"stop_lon":-83.001383,"zone_id":" ","stop_url":" ","location_t":" ","parent_sta":" ","wheelchair":0}},{"type":"Feature","id":276,"geometry":{"type":"Point","coordinates":[-82.947893,40.016027]},"properties":{"FID":276,"stop_id":"BREMYRS","stop_code":1883,"stop_name":"BRENTNELL AVE & MYRTLE AVE","stop_desc":" ","stop_lat":40.016027,"stop_lon":-82.947893,"zone_id":" ","stop_url":" ","location_t":" ","parent_sta":" ","wheelchair":0}},{"type":"Feature","id":277,"geometry":{"type":"Point","coordinates":[-83.00125,40.027912]},"properties":{"FID":277,"stop_id":"INDCOMN","stop_code":1444,"stop_name":"INDIANOLA AVE & E COMO AVE","stop_desc":" ","stop_lat":40.027912,"stop_lon":-83.00125,"zone_id":" ","stop_url":" ","location_t":" ","parent_sta":" ","wheelchair":0}},{"type":"Feature","id":278,"geometry":{"type":"Point","coordinates":[-82.948257,40.014159]},"properties":{"FID":278,"stop_id":"BREMARS","stop_code":1884,"stop_name":"BRENTNELL AVE & MARCIA DR","stop_desc":" ","stop_lat":40.014159,"stop_lon":-82.948257,"zone_id":" ","stop_url":" ","location_t":" ","parent_sta":" ","wheelchair":0}},{"type":"Feature","id":279,"geometry":{"type":"Point","coordinates":[-83.001069,40.029849]},"properties":{"FID":279,"stop_id":"INDCLIN","stop_code":1445,"stop_name":"INDIANOLA AVE & CLINTON HGTS AVE","stop_desc":" ","stop_lat":40.029849,"stop_lon":-83.001069,"zone_id":" ","stop_url":" ","location_t":" ","parent_sta":" ","wheelchair":0}},{"type":"Feature","id":280,"geometry":{"type":"Point","coordinates":[-83.000921,40.031582]},"properties":{"FID":280,"stop_id":"INDNORN","stop_code":1446,"stop_name":"INDIANOLA AVE & E N BROADWAY","stop_desc":"INDIANOLA AVE & E NORTH BROADWAY","stop_lat":40.031582,"stop_lon":-83.000921,"zone_id":" ","stop_url":" ","location_t":" ","parent_sta":" ","wheelchair":0}},{"type":"Feature","id":281,"geometry":{"type":"Point","coordinates":[-82.947786,40.012089]},"properties":{"FID":281,"stop_id":"BREMOCS","stop_code":1885,"stop_name":"BRENTNELL AVE & MOCK RD","stop_desc":" ","stop_lat":40.012089,"stop_lon":-82.947786,"zone_id":" ","stop_url":" ","location_t":" ","parent_sta":" ","wheelchair":0}},{"type":"Feature","id":282,"geometry":{"type":"Point","coordinates":[-83.000719,40.034704]},"properties":{"FID":282,"stop_id":"INDPIEN","stop_code":1448,"stop_name":"INDIANOLA AVE & PIEDMONT RD","stop_desc":" ","stop_lat":40.034704,"stop_lon":-83.000719,"zone_id":" ","stop_url":" ","location_t":" ","parent_sta":" ","wheelchair":0}},{"type":"Feature","id":283,"geometry":{"type":"Point","coordinates":[-83.000581,40.036662]},"properties":{"FID":283,"stop_id":"INDTORN","stop_code":1449,"stop_name":"INDIANOLA AVE & TORRENCE RD","stop_desc":" ","stop_lat":40.036662,"stop_lon":-83.000581,"zone_id":" ","stop_url":" ","location_t":" ","parent_sta":" ","wheelchair":0}},{"type":"Feature","id":284,"geometry":{"type":"Point","coordinates":[-82.942072,40.010356]},"properties":{"FID":284,"stop_id":"BARBROS","stop_code":1887,"stop_name":"BAR HARBOR RD & BROCTON RD","stop_desc":" ","stop_lat":40.010356,"stop_lon":-82.942072,"zone_id":" ","stop_url":" ","location_t":" ","parent_sta":" ","wheelchair":0}},{"type":"Feature","id":285,"geometry":{"type":"Point","coordinates":[-83.000428,40.038868]},"properties":{"FID":285,"stop_id":"INDFALN","stop_code":1450,"stop_name":"INDIANOLA AVE & FALLIS RD","stop_desc":" ","stop_lat":40.038868,"stop_lon":-83.000428,"zone_id":" ","stop_url":" ","location_t":" ","parent_sta":" ","wheelchair":0}},{"type":"Feature","id":286,"geometry":{"type":"Point","coordinates":[-82.943188,40.009416]},"properties":{"FID":286,"stop_id":"DELBARW","stop_code":1888,"stop_name":"DELAVAN DR & BAR HARBOR RD","stop_desc":" ","stop_lat":40.009416,"stop_lon":-82.943188,"zone_id":" ","stop_url":" ","location_t":" ","parent_sta":" ","wheelchair":0}},{"type":"Feature","id":287,"geometry":{"type":"Point","coordinates":[-83.000154,40.041894]},"properties":{"FID":287,"stop_id":"INDNORTN","stop_code":1452,"stop_name":"INDIANOLA AVE & NORTHRIDGE RD","stop_desc":" ","stop_lat":40.041894,"stop_lon":-83.000154,"zone_id":" ","stop_url":" ","location_t":" ","parent_sta":" ","wheelchair":0}},{"type":"Feature","id":288,"geometry":{"type":"Point","coordinates":[-82.999992,40.04407]},"properties":{"FID":288,"stop_id":"INDGLEN","stop_code":1453,"stop_name":"INDIANOLA AVE & GLENMONT AVE","stop_desc":" ","stop_lat":40.04407,"stop_lon":-82.999992,"zone_id":" ","stop_url":" ","location_t":" ","parent_sta":" ","wheelchair":0}},{"type":"Feature","id":289,"geometry":{"type":"Point","coordinates":[-82.945737,40.009537]},"properties":{"FID":289,"stop_id":"DEL235W","stop_code":1890,"stop_name":"2358 DELAVAN DR","stop_desc":" ","stop_lat":40.009537,"stop_lon":-82.945737,"zone_id":" ","stop_url":" ","location_t":" ","parent_sta":" ","wheelchair":0}},{"type":"Feature","id":290,"geometry":{"type":"Point","coordinates":[-82.999786,40.049251]},"properties":{"FID":290,"stop_id":"INDCOON","stop_code":1454,"stop_name":"INDIANOLA AVE & E COOKE RD","stop_desc":" ","stop_lat":40.049251,"stop_lon":-82.999786,"zone_id":" ","stop_url":" ","location_t":" ","parent_sta":" ","wheelchair":0}},{"type":"Feature","id":291,"geometry":{"type":"Point","coordinates":[-82.948037,40.009921]},"properties":{"FID":291,"stop_id":"BREDELS","stop_code":1892,"stop_name":"BRENTNELL AVE & DELAVAN DR","stop_desc":" ","stop_lat":40.009921,"stop_lon":-82.948037,"zone_id":" ","stop_url":" ","location_t":" ","parent_sta":" ","wheelchair":0}},{"type":"Feature","id":292,"geometry":{"type":"Point","coordinates":[-83.000236,40.054291]},"properties":{"FID":292,"stop_id":"INDWEIN","stop_code":1457,"stop_name":"INDIANOLA AVE & E WEISHEIMER RD","stop_desc":" ","stop_lat":40.054291,"stop_lon":-83.000236,"zone_id":" ","stop_url":" ","location_t":" ","parent_sta":" ","wheelchair":0}},{"type":"Feature","id":293,"geometry":{"type":"Point","coordinates":[-82.948324,40.006493]},"properties":{"FID":293,"stop_id":"BREMIDS","stop_code":1893,"stop_name":"BRENTNELL AVE & MIDDLEHURST DR","stop_desc":" ","stop_lat":40.006493,"stop_lon":-82.948324,"zone_id":" ","stop_url":" ","location_t":" ","parent_sta":" ","wheelchair":0}},{"type":"Feature","id":294,"geometry":{"type":"Point","coordinates":[-83.000502,40.05721]},"properties":{"FID":294,"stop_id":"INDBEAN","stop_code":1458,"stop_name":"INDIANOLA AVE & E BEAUMONT RD","stop_desc":" ","stop_lat":40.05721,"stop_lon":-83.000502,"zone_id":" ","stop_url":" ","location_t":" ","parent_sta":" ","wheelchair":0}},{"type":"Feature","id":295,"geometry":{"type":"Point","coordinates":[-82.948864,40.004002]},"properties":{"FID":295,"stop_id":"BREARGS","stop_code":1894,"stop_name":"BRENTNELL AVE & ARGYLE DR","stop_desc":" ","stop_lat":40.004002,"stop_lon":-82.948864,"zone_id":" ","stop_url":" ","location_t":" ","parent_sta":" ","wheelchair":0}},{"type":"Feature","id":296,"geometry":{"type":"Point","coordinates":[-83.000946,40.060612]},"properties":{"FID":296,"stop_id":"INDJEFN","stop_code":1460,"stop_name":"INDIANOLA AVE & E JEFFREY PL","stop_desc":" ","stop_lat":40.060612,"stop_lon":-83.000946,"zone_id":" ","stop_url":" ","location_t":" ","parent_sta":" ","wheelchair":0}},{"type":"Feature","id":297,"geometry":{"type":"Point","coordinates":[-82.949334,40.00024]},"properties":{"FID":297,"stop_id":"BREHOLS","stop_code":1896,"stop_name":"BRENTNELL AVE & HOLT AVE","stop_desc":" ","stop_lat":40.00024,"stop_lon":-82.949334,"zone_id":" ","stop_url":" ","location_t":" ","parent_sta":" ","wheelchair":0}},{"type":"Feature","id":298,"geometry":{"type":"Point","coordinates":[-83.003354,40.06185]},"properties":{"FID":298,"stop_id":"MORCOLW","stop_code":1461,"stop_name":"MORSE RD & COLERAIN AVE","stop_desc":" ","stop_lat":40.06185,"stop_lon":-83.003354,"zone_id":" ","stop_url":" ","location_t":" ","parent_sta":" ","wheelchair":0}},{"type":"Feature","id":299,"geometry":{"type":"Point","coordinates":[-82.949488,39.99766]},"properties":{"FID":299,"stop_id":"BREORIS","stop_code":1897,"stop_name":"BRENTNELL AVE & ORIOLE PL","stop_desc":" ","stop_lat":39.99766,"stop_lon":-82.949488,"zone_id":" ","stop_url":" ","location_t":" ","parent_sta":" ","wheelchair":0}},{"type":"Feature","id":300,"geometry":{"type":"Point","coordinates":[-83.00614,40.061968]},"properties":{"FID":300,"stop_id":"MORBEEW","stop_code":1462,"stop_name":"MORSE RD & BEECH HILL AVE","stop_desc":" ","stop_lat":40.061968,"stop_lon":-83.00614,"zone_id":" ","stop_url":" ","location_t":" ","parent_sta":" ","wheelchair":0}},